state,state_code,county,county_code,payam,,payam_code,site,site_dhis2_id,site_dhis2_name,latitude,longitude,facility_type,,func_status
Ruweng Admin,SS06,Abiemnhom,SS0601,Abiemnhom,Abiemnhom,SS060101,Abiemnom Phcc,uLEi6odqenf,Abiemnom PHCC,9.39874,28.8234,phcc,PHCC,1
Ruweng Admin,SS06,Abiemnhom,SS0601,Abiemnhom,Abiemnhom,SS060101,Awarpiny Phcu,yGT064K7KDb,Awarpiny PHCU,9.47362,28.88828,phcu,PHCU,1
Ruweng Admin,SS06,Abiemnhom,SS0601,Abiemnhom,Abiemnhom,SS060101,Manajoga Phcu,B28DxdG6Wuc,Manajoga PHCU,9.392128,28.811239,phcu,PHCU,1
Ruweng Admin,SS06,Abiemnhom,SS0601,Abiemnhom,Abiemnhom,SS060101,Panyang Phcu,zZvuNYtjDlC,Panyang PHCU,9.40919,28.91259,phcu,PHCU,1
Abyei Admin,SS00,Abyei Region,SS0001,Abyei Region,Abyei Region,SS000101,Abyei Civil Hospital,dcxxj6WsrYh,Abyei Civil HOSPITAL,9.5920517,28.4362648,hospital,HOSPITAL,1
Abyei Admin,SS00,Abyei Region,SS0001,Abyei Region,Abyei Region,SS000101,Abyei Phcc,vYTDq0lgbXi,Abyei PHCC,9.605027,28.4321627,phcc,PHCC,1
Abyei Admin,SS00,Abyei Region,SS0001,Abyei Region,Abyei Region,SS000101,Agany Tok Phcu,IN0Vq0USxQp,Agany Tok PHCU,9.527582,28.4344551,phcu,PHCU,0
Abyei Admin,SS00,Abyei Region,SS0001,Abyei Region,Abyei Region,SS000101,Agok Phcc,M60vi2MxFHK,Agok PHCC,9.3570269,28.5826749,phcc,PHCC,0
Abyei Admin,SS00,Abyei Region,SS0001,Abyei Region,Abyei Region,SS000101,Amenth Bek Hospital,gi9beIhrewq,Amenth bek HOSPITAL,9.5848252,28.4592471,hospital,HOSPITAL,1
Abyei Admin,SS00,Abyei Region,SS0001,Abyei Region,Abyei Region,SS000101,Amiet Phcu,vv5PvdZ2CIs,Amiet PHCU,9.7156987,28.4657346,phcu,PHCU,0
Abyei Admin,SS00,Abyei Region,SS0001,Abyei Region,Abyei Region,SS000101,Awal Phcu,v7E2MTfCew7,Awal PHCU,9.435215,28.6196528,phcu,PHCU,1
Abyei Admin,SS00,Abyei Region,SS0001,Abyei Region,Abyei Region,SS000101,Awalnhom Phcu,HyCeCABZGq0,Awalnhom PHCU,9.5264843,28.4847421,phcu,PHCU,1
Abyei Admin,SS00,Abyei Region,SS0001,Abyei Region,Abyei Region,SS000101,Dongop Phcu,caIT3QjnwTU,Dongop PHCU,9.6382736,28.5045074,phcu,PHCU,0
Abyei Admin,SS00,Abyei Region,SS0001,Abyei Region,Abyei Region,SS000101,Ganga Phcu,u9MPZmqwBCG,Ganga PHCU,9.4847959,28.5524158,phcc,PHCC,1
Abyei Admin,SS00,Abyei Region,SS0001,Abyei Region,Abyei Region,SS000101,Juljok Msf Hospital,NA,NA,9.3597296,28.5990978,hospital,HOSPITAL,0
Abyei Admin,SS00,Abyei Region,SS0001,Abyei Region,Abyei Region,SS000101,Juljok Phcc,m94VtenC9H6,Juljok PHCC,9.3658851,28.6049485,phcc,PHCC,0
Abyei Admin,SS00,Abyei Region,SS0001,Abyei Region,Abyei Region,SS000101,Mabok Phcu,CqJttDJSoLN,Mabok PHCU,9.4793614,28.6100767,phcu,PHCU,0
Abyei Admin,SS00,Abyei Region,SS0001,Abyei Region,Abyei Region,SS000101,Mading Achueng Phcu,pRo0AIMXlpT,Mading Achueng PHCU,9.5238189,28.4601466,phcu,PHCU,1
Abyei Admin,SS00,Abyei Region,SS0001,Abyei Region,Abyei Region,SS000101,Malual Aleiu Phcu,hfYFXsMR4uq,Malual Aleiu PHCU,9.4510734,28.4407133,phcu,PHCU,0
Abyei Admin,SS00,Abyei Region,SS0001,Abyei Region,Abyei Region,SS000101,Mijak Phcu,B4Q3LShqry6,Mijak PHCU,9.5335818,28.5301189,phcu,PHCU,1
Abyei Admin,SS00,Abyei Region,SS0001,Abyei Region,Abyei Region,SS000101,Rumamer Phcc,BJryjTptAzv,Rumamer PHCC,9.4396098,28.6628746,phcc,PHCC,1
Jonglei,SS03,Akobo,SS0301,Bilkey,Bilkey,SS030103,Akobo Hospital,Wx8ppq2BBa0,Akobo HOSPITAL,7.79903,33.01014,phcc,PHCC,1
Jonglei,SS03,Akobo,SS0301,Buong,Buong,SS030104,Buong Phcu,SB6MfvqEWRB,Buong PHCU,8.16169,32.38052,phcu,PHCU,1
Jonglei,SS03,Akobo,SS0301,Nyandit,Nyandit,SS030107,Burmath Phcu,BFUopdmj3O3,Burmath PHCU,7.63963,33.16049,phcu,PHCU,1
Jonglei,SS03,Akobo,SS0301,Diror,Diror,SS030106,Diror Phcu,usv3OSUl8K1,Diror PHCU,8.11623,32.33227,phcu,PHCU,1
Jonglei,SS03,Akobo,SS0301,Walgak,Walgak,SS030108,Kaikuiny Phcc,OmcZNdg3rzT,Kaikuiny PHCC,8.092675023,32.38569743,phcu,PHCU,1
Jonglei,SS03,Akobo,SS0301,Dengjok,Dengjok,SS030105,Nukta Thoklial Phcc,Dt97oqHZioJ,Nukta Thoklial PHCC,7.8780778,32.99842222,phcc,PHCC,1
Jonglei,SS03,Akobo,SS0301,Diror,Diror,SS030106,Tangnyang Phcu,CKrlfIRf7S0,Tangnyang PHCU,8.10797,32.29056,phcu,PHCU,1
Jonglei,SS03,Akobo,SS0301,Dengjok,Dengjok,SS030105,Thokliel Phcu,XIR84lcZFkF,Thokliel PHCU,7.87776,32.99834,phcu,PHCU,1
Jonglei,SS03,Akobo,SS0301,Dengjok,Dengjok,SS030105,Thokwath Phcu,PMWkm3Lp0tG,Thokwath PHCU,7.94187,32.99673,phcu,PHCU,1
Jonglei,SS03,Akobo,SS0301,Walgak,Walgak,SS030108,Walgak Phcc,CCzq532FzNy,Walgak PHCC,8.16053,32.2386,phcc,PHCC,1
Jonglei,SS03,Akobo,SS0301,Barmach,Barmach,SS030102,Yidit Phcu,MeNDM6EMzR1,Yidit PHCU,8.21799,32.26659,phcu,PHCU,1
North Bahr,SS05,Aweil Centre,SS0501,Chel South,Chel South,SS050106,Akuangkar Phcu,d8JDBa1Ocw4,Akuangkar PHCU,8.8082173,26.851223,phcu,PHCU,0
North Bahr,SS05,Aweil Centre,SS0501,Bahr Mayen,Bahr Mayen,SS050105,Alok Phcu,Yiwr6jkFv5K,Alok PHCU,8.440259999999999,27.52705,phcu,PHCU,1
North Bahr,SS05,Aweil East,SS0502,Mayom-Wel,Mayom-Wel,SS050208,Amothic Phcu,BLg47tAHD2E,Amothic PHCU,8.7638819,27.4451563,phcu,PHCU,1
North Bahr,SS05,Aweil Centre,SS0501,Aroyo,Aroyo,SS050103,Aroyo Dtc Phcc,t3h4yQ5Jgzr,Aroyo DTC PHCC,8.403319999999999,26.51259,phcc,PHCC,1
North Bahr,SS05,Aweil Centre,SS0501,Abul,Abul,SS050101,Awada Phcc,RWACVPLCmWz,Awada PHCC,8.06861,26.8391,phcu,PHCU,1
North Bahr,SS05,Aweil West,SS0505,Aweil Town,Aweil Town,SS050502,Aweil Civil Hospital,Ofi0Czhbc2D,Aweil Civil HOSPITAL,8.768444,27.398381,hospital,HOSPITAL,1
North Bahr,SS05,Aweil West,SS0505,Mariem East,Mariem East,SS050509,Awulic Phcu,Z1JdzJo0YEb,Awulic PHCU,8.8384217,27.4238451,phcu,PHCU,1
North Bahr,SS05,Aweil Centre,SS0501,Bahr Mayen,Bahr Mayen,SS050105,Bar Mayen Phcc,oipRfLR61sJ,Bar Mayen PHCC,8.214939999999999,27.36456,phcc,PHCC,1
North Bahr,SS05,Aweil Centre,SS0501,Bahr Mayen,Bahr Mayen,SS050105,Bau Phcu,eYU4fdE7qcW,Bau PHCU,8.4392504,27.7591574,phcu,PHCU,1
North Bahr,SS05,Aweil Centre,SS0501,Chel South,Chel South,SS050106,Chamanguoi Phcu,VswVTA1sjsu,Chamanguoi PHCU,8.6968049,26.8456405,phcu,PHCU,0
North Bahr,SS05,Aweil Centre,SS0501,Nyalath,Nyalath,SS050107,Gabat Phcc,dhF0zQRQ05S,Gabat PHCC,8.759489000000002,27.385069,phcc,PHCC,1
North Bahr,SS05,Aweil Centre,SS0501,Abul,Abul,SS050101,Jelwan Phcu,fMb7ZxhOYBd,Jelwan PHCU,7.9353963,26.7898972,phcu,PHCU,0
North Bahr,SS05,Aweil Centre,SS0501,Nyalath,Nyalath,SS050107,Kuom Phcu,av3CEhUL2fD,Kuom PHCU,8.43189,27.24577,phcu,PHCU,1
North Bahr,SS05,Aweil Centre,SS0501,Nyalath,Nyalath,SS050107,Longwurkech Phcu,NA,NA,8.6382225,27.1201094,phcu,PHCU,0
North Bahr,SS05,Aweil Centre,SS0501,Achana,Achana,SS050102,Lulic Phcu,FEucBN3d0ZD,Lulic PHCU,9.0565189,26.5819505,phcu,PHCU,0
North Bahr,SS05,Aweil Centre,SS0501,Chel South,Chel South,SS050106,Mabok Akot Phcu,siUTqJda7jP,Mabok Akot PHCU,8.894972,26.894972,phcu,PHCU,1
North Bahr,SS05,Aweil Centre,SS0501,Bahr Mayen,Bahr Mayen,SS050105,Maluil Akot Phcu,DYQ5Gglpvsy,Maluil Akot PHCU,8.5278641,27.7716986,phcu,PHCU,1
North Bahr,SS05,Aweil Centre,SS0501,Nyalath,Nyalath,SS050107,Nyalath Phcu,zLyhBlOUgMc,Nyalath PHCU,8.8384037,27.4237878,phcu,PHCU,1
North Bahr,SS05,Aweil Centre,SS0501,Chel South,Chel South,SS050106,Nyien Alel Phcu,De7buWDBC3R,Nyien Alel PHCU,8.948138,26.9043895,phcu,PHCU,0
North Bahr,SS05,Aweil Centre,SS0501,Bahr Mayen,Bahr Mayen,SS050105,Panjap Phcu,qJKsBkXKeVM,Panjap PHCU,8.600051,27.4859973,phcu,PHCU,1
North Bahr,SS05,Aweil Centre,SS0501,Achana,Achana,SS050102,Umora Phcu,zQ6hdBzgrMr,Umora PHCU,8.5987094,26.7368451,phcu,PHCU,0
North Bahr,SS05,Aweil East,SS0502,Malual-Bai,Malual-Bai,SS050203,Adoor Phcu,fxaV3wurjMH,Adoor PHCU,9.44656,27.74986,phcu,PHCU,1
North Bahr,SS05,Aweil East,SS0502,Yargot,Yargot,SS050207,Akuem Phcc,T9Bp33InwUe,Akuem PHCC,8.962100000000001,27.50069,phcc,PHCC,1
North Bahr,SS05,Aweil East,SS0502,Madhol,Madhol,SS050202,Ameth Akok Phcu,ZjsrTQpws7O,Ameth Akok PHCU,9.128639999999999,27.76917,phcu,PHCU,1
North Bahr,SS05,Aweil East,SS0502,Malual-Bai,Malual-Bai,SS050203,Amethgolduang Phcu,JqDVHKZwSci,Amethgolduang PHCU,9.085580000000002,27.89715,phcu,PHCU,1
North Bahr,SS05,Aweil East,SS0502,Malual-Bai,Malual-Bai,SS050203,Atuet Phcu,ReoG2ZofOso,Atuet PHCU,8.9938864,27.756402,phcu,PHCU,1
North Bahr,SS05,Aweil East,SS0502,Baach,Baach,SS050201,Baach Phcu,xu4c2AH5M2c,Baach PHCU,9.335083000000001,27.942222,phcu,PHCU,1
North Bahr,SS05,Aweil East,SS0502,Baach,Baach,SS050201,Bakou Phcu,atHio2fziI3,Bakou PHCU,9.2654493,27.6250338,phcu,PHCU,1
North Bahr,SS05,Aweil East,SS0502,Baach,Baach,SS050201,Cuomator Phcu,W6wrCFXpQah,Cuomator PHCU,8.826627,27.6676113,phcu,PHCU,1
North Bahr,SS05,Aweil East,SS0502,Baach,Baach,SS050201,Goldhim Tb Phcc,Z3Qy7YoybYO,Goldhim TB PHCC,9.23205,27.66689,phcc,PHCC,1
North Bahr,SS05,Aweil East,SS0502,Malual-Bai,Malual-Bai,SS050203,Lieth Phcc,RYIYJHp5w2j,Lieth PHCC,9.2477203,27.7795452,phcc,PHCC,1
North Bahr,SS05,Aweil East,SS0502,Baach,Baach,SS050201,Mabil Phcc,aaDHurdcIeR,Mabil PHCC,9.00261,27.57996,phcu,PHCU,1
North Bahr,SS05,Aweil East,SS0502,Mangok,Mangok,SS050205,Mabiorwundiing Phcu,TQVXjbNxPVr,Mabiorwundiing PHCU,9.1297614,27.3853162,phcu,PHCU,1
North Bahr,SS05,Aweil East,SS0502,Madhol,Madhol,SS050202,Mabok Tong Phcu,NfcwAwnhjaO,Mabok Tong PHCU,9.479680000000002,27.771067,phcu,PHCU,1
North Bahr,SS05,Aweil East,SS0502,Malual-Bai,Malual-Bai,SS050203,Macharluong Phcu,sMpqrnQI3qs,Macharluong PHCU,9.5446076,27.3653003,phcu,PHCU,0
North Bahr,SS05,Aweil East,SS0502,Madhol,Madhol,SS050202,Madhol Phcu,KaY5tH0xlny,Madhol PHCU,9.038719999999998,27.70298,phcu,PHCU,1
North Bahr,SS05,Aweil East,SS0502,Malual-Bai,Malual-Bai,SS050203,Majok Yith Thiou Phcu,z7WfhLAgOr0,Majok Yith Thiou PHCU,9.6954891,27.7872124,phcu,PHCU,1
North Bahr,SS05,Aweil East,SS0502,Baach,Baach,SS050201,Majok-Akeen Phcu,na5WEAvsZ2B,Majok-Akeen PHCU,9.4329602,27.4764719,phcc,PHCC,1
North Bahr,SS05,Aweil East,SS0502,Mangok,Mangok,SS050205,Makeranei Phcu,NuoHBPMg1YF,Makeranei PHCU,9.4668321,27.1972179,phcu,PHCU,0
North Bahr,SS05,Aweil East,SS0502,Baach,Baach,SS050201,Malek Bol Phcu,dk6I2iEGtWw,Malek Bol PHCU,9.332583000000001,27.52845,phcu,PHCU,1
North Bahr,SS05,Aweil East,SS0502,Madhol,Madhol,SS050202,Malith Alekyai Phcu,D4HuWg8gTPt,Malith Alekyai PHCU,9.4438545,27.7105724,phcu,PHCU,1
North Bahr,SS05,Aweil East,SS0502,Malual-Bai,Malual-Bai,SS050203,Malual Akuong Phcu,NA,NA,9.525009,27.8555703,phcu,PHCU,0
North Bahr,SS05,Aweil East,SS0502,Malual-Bai,Malual-Bai,SS050203,Malual Baai Phcc,Nwd0jU6D2ms,Malual Baai PHCC,9.05925,27.75988,phcc,PHCC,1
North Bahr,SS05,Aweil East,SS0502,Wunlang,Wunlang,SS050206,Malual-Kuel Phcu,UnIr5l5O2Pj,Malual-Kuel PHCU,9.42845,27.30181,phcu,PHCU,1
North Bahr,SS05,Aweil East,SS0502,Baach,Baach,SS050201,Malualkon Phcc,jdDuGLYGhYh,Malualkon PHCC,9.0142301,27.6252807,phcc,PHCC,1
North Bahr,SS05,Aweil East,SS0502,Mangar-Tong I,Mangar-Tong I,SS050204,Mangar Tong Phcu,kQWe91yMjsl,Mangar Tong PHCU,9.07419,27.54858,phcu,PHCU,1
North Bahr,SS05,Aweil East,SS0502,Mangok,Mangok,SS050205,Mangok Phcu,AO36UJ84Ci6,Mangok PHCU,9.04256,27.38596,phcu,PHCU,1
North Bahr,SS05,Aweil East,SS0502,Wunlang,Wunlang,SS050206,Manyiel Phcu,Oysr09B5nk7,Manyiel PHCU,8.973780000000001,27.52861,phcu,PHCU,1
North Bahr,SS05,Aweil East,SS0502,Mangar-Tong I,Mangar-Tong I,SS050204,Marolajuong Phcu,wz7vHMJkNNW,Marolajuong PHCU,9.26234,27.4570242,phcu,PHCU,1
North Bahr,SS05,Aweil East,SS0502,Mangok,Mangok,SS050205,Marolduliit Phcu,QMSUe7XJJJw,Marolduliit PHCU,9.154386,27.3410437,phcu,PHCU,0
North Bahr,SS05,Aweil East,SS0502,Baach,Baach,SS050201,Mayenadhot Phcu,ywn3NJFpDnp,Mayenadhot PHCU,8.8781081,27.6103326,phcu,PHCU,1
North Bahr,SS05,Aweil East,SS0502,Mangar-Tong I,Mangar-Tong I,SS050204,Mayom Wel Phcu,kmRpatv58ee,Mayom Wel PHCU,8.7483342,27.4496165,phcu,PHCU,1
North Bahr,SS05,Aweil East,SS0502,Malual-Bai,Malual-Bai,SS050203,Nientok Phcu,NA,NA,9.2064488,27.8686198,phcu,PHCU,0
North Bahr,SS05,Aweil East,SS0502,Baach,Baach,SS050201,Omdurman Phcc,NhWxARW0Oau,Omdurman PHCC,9.234349999999997,27.51199,phcc,PHCC,1
North Bahr,SS05,Aweil East,SS0502,Malual-Bai,Malual-Bai,SS050203,Peth Phcu,CaytGdd0MtJ,Peth PHCU,8.96447,27.79725,phcu,PHCU,1
North Bahr,SS05,Aweil East,SS0502,Mangok,Mangok,SS050205,Raingmal Phcu,cKROAytbdde,Raingmal PHCU,8.9072292,27.4303123,phcu,PHCU,1
North Bahr,SS05,Aweil East,SS0502,Mangar-Tong I,Mangar-Tong I,SS050204,Rial Diit Phcc,Qm9GElrxwFw,Rial Diit PHCC,9.13674,27.51098,phcu,PHCU,1
North Bahr,SS05,Aweil East,SS0502,Malual-Bai,Malual-Bai,SS050203,Rianganguei Phcu/Moral Lach,NA,NA,9.1790152,27.7378892,phcu,PHCU,0
North Bahr,SS05,Aweil East,SS0502,Baach,Baach,SS050201,Rum Aker Phcu,lTQza3XMdJv,Rum Aker PHCU,9.15,27.59,phcu,PHCU,1
North Bahr,SS05,Aweil East,SS0502,Madhol,Madhol,SS050202,Rumrol Phcu,NE7rQMVONn6,Rumrol PHCU,9.2167121,27.706111,phcu,PHCU,1
North Bahr,SS05,Aweil East,SS0502,Malual-Bai,Malual-Bai,SS050203,Rumwel Phcu,Wnvp8ouxvm5,Rumwel PHCU,9.073500000000001,27.85088,phcu,PHCU,1
North Bahr,SS05,Aweil East,SS0502,Mangar-Tong I,Mangar-Tong I,SS050204,Rumwet Kor Phcu,WJCqaRSu5UW,Rumwet Kor PHCU,9.2814,27.58534,phcu,PHCU,1
North Bahr,SS05,Aweil East,SS0502,Mangar-Tong I,Mangar-Tong I,SS050204,Tit Chok Phcc,WMmYu7OobSk,Tit Chok PHCC,8.85862,27.53977,phcu,PHCU,1
North Bahr,SS05,Aweil East,SS0502,Baach,Baach,SS050201,Warawar Phcu,j0FRIjq3PQe,Warawar PHCU,9.01681,27.62678,phcu,PHCU,1
North Bahr,SS05,Aweil East,SS0502,Malual-Bai,Malual-Bai,SS050203,Warcuei Phcu,NA,NA,9.0293058,27.8099416,phcu,PHCU,0
North Bahr,SS05,Aweil East,SS0502,Wunlang,Wunlang,SS050206,Wardong Phcu,fLM1mlblwc8,Wardong PHCU,9.2433811,27.4028934,phcu,PHCU,1
North Bahr,SS05,Aweil East,SS0502,Yargot,Yargot,SS050207,Warlang Phcu,uplsgkEBafn,Warlang PHCU,9.4356234,27.2361379,phcu,PHCU,1
North Bahr,SS05,Aweil East,SS0502,Mangar-Tong I,Mangar-Tong I,SS050204,Wonyjok Phcc,lF98KiI8hMB,Wonyjok PHCC,9.230832999999999,27.732,phcc,PHCC,1
North Bahr,SS05,Aweil East,SS0502,Wunlang,Wunlang,SS050206,Wunlang Phcu,NUkMCVImLLm,Wunlang PHCU,9.1531075,27.4355047,phcu,PHCU,1
North Bahr,SS05,Aweil East,SS0502,Yargot,Yargot,SS050207,Yargot Phcu,uzeUTcdZBHZ,Yargot PHCU,9.00813,27.45918,phcu,PHCU,1
North Bahr,SS05,Aweil North,SS0503,Malual East,Malual East,SS050303,Abyei Chok Phcu,DUpxinmloYC,Abyei Chok PHCU,9.13579,27.25814,phcu,PHCU,1
North Bahr,SS05,Aweil North,SS0503,Malual Centre,Malual Centre,SS050302,Ajak Wol Phcu,jNK9M0NLB4V,Ajak Wol PHCU,9.19451,27.06147,phcu,PHCU,1
North Bahr,SS05,Aweil North,SS0503,Malual West,Malual West,SS050305,Akuak Malual Phcu,t7y3EhJCDCM,Akuak Malual PHCU,9.1130362,26.6268553,phcu,PHCU,1
North Bahr,SS05,Aweil North,SS0503,Ariath,Ariath,SS050301,Arieth Phcu,DTbJ6uxw5EZ,Arieth PHCU,9.105,27.2224,phcu,PHCU,1
North Bahr,SS05,Aweil North,SS0503,Malual North,Malual North,SS050304,Gok Machar Phcc,Z3fTSFMtfNV,Gok Machar PHCC,9.12562,26.51585,phcc,PHCC,1
North Bahr,SS05,Aweil North,SS0503,Malual North,Malual North,SS050304,Gor Ayen Phcu,rYFqr532fOE,Gor Ayen PHCU,9.143813,26.9344616,phcu,PHCU,1
North Bahr,SS05,Aweil North,SS0503,Malual West,Malual West,SS050305,Jaac Ppf Phcu,lQWfadajAZH,Jaac PPF PHCU,9.47461,27.1361,phcu,PHCU,1
North Bahr,SS05,Aweil North,SS0503,Malual West,Malual West,SS050305,Jurbeech Phcu,LKHLPint6pA,Jurbeech PHCU,8.9735204,26.3902852,phcu,PHCU,1
North Bahr,SS05,Aweil North,SS0503,Ariath,Ariath,SS050301,Kajik Phcu,k4taRUZgwhL,Kajik PHCU,9.16686,27.1368,phcu,PHCU,1
North Bahr,SS05,Aweil North,SS0503,Malual North,Malual North,SS050304,Kiir Adem Phcu,la0tD0qbb1l,Kiir adem PHCU,9.6863794,26.8192296,phcu,PHCU,1
North Bahr,SS05,Aweil North,SS0503,Ariath,Ariath,SS050301,Lueth Lual Phcu,jcVxQW9haWn,Lueth Lual PHCU,9.1927077,27.1037855,phcu,PHCU,1
North Bahr,SS05,Aweil North,SS0503,Ariath,Ariath,SS050301,Lueth Ngor Phcu,IJNI4toZ6kf,Lueth Ngor PHCU,9.2055838,27.1609256,phcu,PHCU,1
North Bahr,SS05,Aweil North,SS0503,Malual West,Malual West,SS050305,Mabior Nyang Phcu,WEYVQhDMzrj,Mabior Nyang PHCU,9.1335449,26.690508,phcu,PHCU,1
North Bahr,SS05,Aweil North,SS0503,Malual West,Malual West,SS050305,Majak Bai Phcc,SeZj85CQP4B,Majak Bai PHCC,9.118757999999998,26.79562,phcc,PHCC,1
North Bahr,SS05,Aweil North,SS0503,Malual North,Malual North,SS050304,Majak Bol Phcu,rHUPjcGj8jN,Majak Bol PHCU,9.3036379,26.8584344,phcu,PHCU,1
North Bahr,SS05,Aweil North,SS0503,Malual Centre,Malual Centre,SS050302,Majak Kar Phcc,pRJtRssStgH,Majak Kar PHCC,9.223714,27.021672,phcc,PHCC,1
North Bahr,SS05,Aweil North,SS0503,Malual East,Malual East,SS050303,Makuac Akech Phcu,J2JdIVAH6wP,Makuac Akech PHCU,9.143919999999998,27.3009,phcu,PHCU,1
North Bahr,SS05,Aweil North,SS0503,Malual East,Malual East,SS050303,Malual Deng Aruom Phcu,qcMY5ZfIceL,Malual Deng Aruom PHCU,9.21159,27.11443,phcu,PHCU,1
North Bahr,SS05,Aweil North,SS0503,Malual West,Malual West,SS050305,Manyiel Akok Phcu,p5MW3iJywJc,Manyiel Akok PHCU,9.08465,26.51386,phcu,PHCU,1
North Bahr,SS05,Aweil North,SS0503,Ariath,Ariath,SS050301,Maper Ngok Phcu,zsPvcZH01UT,Maper Ngok PHCU,9.2015979,27.1219841,phcu,PHCU,1
North Bahr,SS05,Aweil North,SS0503,Malual Centre,Malual Centre,SS050302,Mareng Akok Phcu,ptOUCpezJU6,Mareng Akok PHCU,9.2812991,27.1002026,phcu,PHCU,1
North Bahr,SS05,Aweil North,SS0503,Malual Centre,Malual Centre,SS050302,Marol Deng Geng Phcu,Rw8mEof12rh,Marol Deng Geng PHCU,9.246669999999998,27.0631,phcu,PHCU,1
North Bahr,SS05,Aweil North,SS0503,Malual Centre,Malual Centre,SS050302,Matuic Phcu,zc6SPkiroAA,Matuic PHCU,9.1700628,27.0463829,phcu,PHCU,1
North Bahr,SS05,Aweil North,SS0503,Malual East,Malual East,SS050303,Mayen Ulem Phcu,VPUbuVICsh2,Mayen Ulem PHCU,9.037139999999999,27.2854,phcc,PHCC,1
North Bahr,SS05,Aweil North,SS0503,Malual North,Malual North,SS050304,Mayom Adhal Phcu,dSqRcblIiZc,Mayom Adhal PHCU,9.115630000000001,26.57282,phcu,PHCU,1
North Bahr,SS05,Aweil North,SS0503,Malual East,Malual East,SS050303,Mayom Dong,NA,NA,9.4490032,27.1298497,phcu,PHCU,0
North Bahr,SS05,Aweil North,SS0503,Malual West,Malual West,SS050305,Mony Phcu,PRsejdOm6g3,Mony PHCU,9.0974289,26.5452683,phcu,PHCU,1
North Bahr,SS05,Aweil North,SS0503,Malual West,Malual West,SS050305,Mony Phcu,TEMP5372547,Mony PHCU,9.0974289,26.5452683,phcu,PHCU,1
North Bahr,SS05,Aweil North,SS0503,Malual Centre,Malual Centre,SS050302,Pamat Phcu,R9XHkEh6fev,Pamat PHCU,9.214166999999998,27.0007,phcu,PHCU,1
North Bahr,SS05,Aweil North,SS0503,Malual North,Malual North,SS050304,Peth Phcu,xnYxV2PESWV,Peth PHCU,9.1629175,26.9050216,phcu,PHCU,1
North Bahr,SS05,Aweil North,SS0503,Malual North,Malual North,SS050304,Roingut Phcu,QfTnSoFrZoO,Roingut PHCU,9.120099999999999,26.55245,phcu,PHCU,1
North Bahr,SS05,Aweil North,SS0503,Malual East,Malual East,SS050303,Rumading Phcu,HZ6Gcka6xjj,Rumading PHCU,9.2246503,27.2943194,phcu,PHCU,1
North Bahr,SS05,Aweil North,SS0503,Ariath,Ariath,SS050301,Tit Agor,NA,NA,9.2385703,27.1517038,phcu,PHCU,0
North Bahr,SS05,Aweil North,SS0503,Malual East,Malual East,SS050303,Warapei Phcc,oDstxaoYPb5,Warapei PHCC,9.242619999999999,27.08467,phcc,PHCC,1
North Bahr,SS05,Aweil North,SS0503,Malual West,Malual West,SS050305,Warchuei Phcu,XdfSWQbR3Ya,Warchuei PHCU,9.103359999999999,26.44253,phcu,PHCU,1
North Bahr,SS05,Aweil North,SS0503,Malual East,Malual East,SS050303,Wargeng Phcu,QfXNfh4xAkg,Wargeng PHCU,9.022247,27.365244,phcu,PHCU,1
North Bahr,SS05,Aweil North,SS0503,Malual Centre,Malual Centre,SS050302,Warkot Phcu,I5DdojQYxZM,Warkot PHCU,9.266212,26.9973356,phcu,PHCU,1
North Bahr,SS05,Aweil North,SS0503,Malual East,Malual East,SS050303,Wathok Phcu,Hn1taBQoAGV,Wathok PHCU,9.03083,27.2298,phcu,PHCU,1
North Bahr,SS05,Aweil South,SS0504,Gakrol,Gakrol,SS050402,Akac Phcc,IMXROb7FlIE,Akac PHCC,8.573162,27.7271816,phcu,PHCU,1
North Bahr,SS05,Aweil South,SS0504,Tiar-Aleit,Tiar-Aleit,SS050408,Aluel Phcu,jb437qkC002,Aluel PHCU,8.8600872,27.9262628,phcu,PHCU,1
North Bahr,SS05,Aweil South,SS0504,Panthou,Panthou,SS050406,Alueth Phcu,tN1bdEJVKMg,Alueth PHCU,8.7120832,27.8606301,phcu,PHCU,1
North Bahr,SS05,Aweil South,SS0504,Ayai,Ayai,SS050401,Ayai Phcu,IAa8lcg6RLK,Ayai PHCU,8.7766349,27.6735481,phcu,PHCU,1
North Bahr,SS05,Aweil South,SS0504,Ayai,Ayai,SS050401,Machar Phcu,TEMP028dweodiu,Machar PHCU,8.7462967,27.6503954,phcu,PHCU,1
North Bahr,SS05,Aweil South,SS0504,Wathmuok,Wathmuok,SS050409,Majangai Phcu,O87sCrB3J04,Majangai PHCU,8.8600741,27.926215,phcu,PHCU,0
North Bahr,SS05,Aweil South,SS0504,Tar-Weng,Tar-Weng,SS050407,Makuei Alel Phcu,duwMretkQYS,Makuei Alel PHCU,8.6389097,27.8529813,phcu,PHCU,1
North Bahr,SS05,Aweil South,SS0504,Nyocawany I,Nyocawany I,SS050404,Malekalel Phcu,o42Yk9Mqafs,Malekalel PHCU,8.5890073,27.5944804,phcu,PHCU,1
North Bahr,SS05,Aweil South,SS0504,Gakrol,Gakrol,SS050402,Manyel Phcu,O0GSOFWzI78,Manyel PHCU,8.503709,27.6622319,phcu,PHCU,0
North Bahr,SS05,Aweil South,SS0504,Nyieth,Nyieth,SS050403,Nyieth Phcu,Y9w98870Bn8,Nyieth PHCU,8.7891871,27.8091078,phcu,PHCU,1
North Bahr,SS05,Aweil South,SS0504,Wathmuok,Wathmuok,SS050409,Panadhot Phcu,aTkye4b11Dc,Panadhot PHCU,8.6876977,27.4369884,phcu,PHCU,1
North Bahr,SS05,Aweil South,SS0504,Panthou,Panthou,SS050406,Panthou Dtc Phcc,XULLgqw57Nj,Panthou DTC PHCC,8.7083828,27.7496619,phcc,PHCC,1
North Bahr,SS05,Aweil South,SS0504,Tar-Weng,Tar-Weng,SS050407,Rumamoth Phcu,p4JNPuLn5o7,Rumamoth PHCU,8.565095,27.7138049,phcu,PHCU,0
North Bahr,SS05,Aweil South,SS0504,Tiar-Aleit,Tiar-Aleit,SS050408,Tiar-Aleit Phcu,Yvmvtbfqc21,Tiar-aleit PHCU,8.7760466,27.8892471,phcu,PHCU,1
North Bahr,SS05,Aweil South,SS0504,Wathmuok,Wathmuok,SS050409,Wathmouk Phcu,W74zc6gw9kq,Wathmouk PHCU,8.69693,27.6813,phcu,PHCU,1
North Bahr,SS05,Aweil South,SS0504,Gakrol,Gakrol,SS050402,Wuncum Phcu,DeMB1mWiKt2,Wuncum PHCU,8.6616394,27.677168000000002,phcu,PHCU,1
North Bahr,SS05,Aweil West,SS0505,Achana 2,Achana 2,SS050501,Achana B Phcu,s37WkNe9YQr,Achana B PHCU,8.92369,26.3743251,phcu,PHCU,0
North Bahr,SS05,Aweil West,SS0505,Mariem East,Mariem East,SS050509,Achana Phcu,rMUyxXjFhpy,Achana PHCU,8.936475,26.3743251,phcu,PHCU,0
North Bahr,SS05,Aweil West,SS0505,Mariem East,Mariem East,SS050509,Aguat Phcu,JuvvKpl9zpG,Aguat PHCU,9.07424,27.09102,phcu,PHCU,1
North Bahr,SS05,Aweil West,SS0505,Mariem East,Mariem East,SS050509,Ajok Phcu,Bh6CeSp5rBU,Ajok PHCU,9.1069975,26.6790939,phcu,PHCU,0
North Bahr,SS05,Aweil West,SS0505,Achana 2,Achana 2,SS050501,Akuak - Rak Phcu,NA,NA,8.9414046,26.3985576,phcu,PHCU,0
North Bahr,SS05,Aweil West,SS0505,Mariem East,Mariem East,SS050509,Akuang Koc Phcu,kjKGd9VysEq,Akuang Koc PHCU,9.0330278,26.4495125,phcu,PHCU,1
North Bahr,SS05,Aweil West,SS0505,Mariem East,Mariem East,SS050509,Alang Phcu,E0wU7Gpwjkl,Alang PHCU,9.0035575,26.4801046,phcu,PHCU,0
North Bahr,SS05,Aweil West,SS0505,Mariem East,Mariem East,SS050509,Aluel Achot Phcu,ASrOtFjEFjd,Aluel Achot PHCU,9.0986168,27.0428394,phcu,PHCU,1
North Bahr,SS05,Aweil West,SS0505,Mariem East,Mariem East,SS050509,Amatnyang Phcu,fIfrTFzMpnb,Amatnyang PHCU,9.074360999999998,27.144556,phcu,PHCU,1
North Bahr,SS05,Aweil West,SS0505,Mariem West,Mariem West,SS050510,Amothic Phcu,EhN4qgMrXM7,Amothic PHCU,8.89808,27.16629,phcu,PHCU,1
North Bahr,SS05,Aweil West,SS0505,Mariem East,Mariem East,SS050509,Angol Phcu,FCrXDcWMoBU,Angol PHCU,9.15055,27.05518,phcu,PHCU,1
North Bahr,SS05,Aweil West,SS0505,Mariem East,Mariem East,SS050509,Angon Lek Phcu,CtLrMbNUUk0,Angon Lek PHCU,9.077742,26.668406,phcu,PHCU,1
North Bahr,SS05,Aweil West,SS0505,Mariem East,Mariem East,SS050509,Anyuopjang Phcu,PYXfUCdlP1D,Anyuopjang PHCU,9.0292184,26.8990965,phcu,PHCU,1
North Bahr,SS05,Aweil West,SS0505,Aweil Town,Aweil Town,SS050502,Aweil Military Hospital,NA,NA,8.7533421,27.3799739,hospital,HOSPITAL,0
North Bahr,SS05,Aweil West,SS0505,Mariem East,Mariem East,SS050509,Chelcou Phcc,ZzWVxppIMd0,Chelcou PHCC,8.9579072,26.8489577,phcc,PHCC,1
North Bahr,SS05,Aweil West,SS0505,Mariem East,Mariem East,SS050509,Guangnou Phcu,foq1ThudZZ3,Guangnou PHCU,8.92295,26.91515,phcu,PHCU,1
North Bahr,SS05,Aweil West,SS0505,Mariem East,Mariem East,SS050509,Joor Gaar Phcu,qQABDfRpSzU,Joor Gaar PHCU,9.121645,26.7183406,phcu,PHCU,0
North Bahr,SS05,Aweil West,SS0505,Mariem East,Mariem East,SS050509,Mabior Phcu,yNFJkLEf1zU,Mabior PHCU,9.1323091,26.8873043,phcu,PHCU,0
North Bahr,SS05,Aweil West,SS0505,Mariem East,Mariem East,SS050509,Machar Adhot Phcu,Dc1SQKzVRD6,Machar Adhot PHCU,9.050272,26.8608455,phcu,PHCU,0
North Bahr,SS05,Aweil West,SS0505,Mariem East,Mariem East,SS050509,Magar Phcu,h3itHhypGJT,Magar PHCU,8.9055896,27.3680368,phcu,PHCU,1
North Bahr,SS05,Aweil West,SS0505,Mariem East,Mariem East,SS050509,Majook Dengdit Phcu,SHSPGYLVa1A,Majook Dengdit PHCU,9.102761,27.061207,phcu,PHCU,1
North Bahr,SS05,Aweil West,SS0505,Mariem West,Mariem West,SS050510,Maker Phcu,LDmdIq5ME0m,Maker PHCU,8.91356,27.333,phcu,PHCU,1
North Bahr,SS05,Aweil West,SS0505,Mariem East,Mariem East,SS050509,Makuoc Phcu,lxPnDCZhQti,Makuoc PHCU,9.0875,26.62971,phcu,PHCU,1
North Bahr,SS05,Aweil West,SS0505,Mariem East,Mariem East,SS050509,Malek Phcu,XTUvuZeb9zP,Malek PHCU,9.0649,26.78416,phcu,PHCU,1
North Bahr,SS05,Aweil West,SS0505,Mariem East,Mariem East,SS050509,Marial Bai Dtc Phcc,LIcaBICNx02,Marial Bai DTC PHCC,9.103127,26.844860099999998,phcc,PHCC,1
North Bahr,SS05,Aweil West,SS0505,Mariem East,Mariem East,SS050509,Marol Buol Phcu,aIkBMBmIVSy,Marol buol PHCU,8.9250916,26.8669799,phcu,PHCU,0
North Bahr,SS05,Aweil West,SS0505,Achana 2,Achana 2,SS050501,Marol Madhan Phcu,Ahe6YOB3Mc3,Marol Madhan PHCU,8.8402819,26.1834108,phcu,PHCU,1
North Bahr,SS05,Aweil West,SS0505,Mariem East,Mariem East,SS050509,Mayom Akuang Rel Phcc,OnYnfyxSmzD,Mayom Akuang Rel PHCC,9.0916701,26.7149293,phcu,PHCU,1
North Bahr,SS05,Aweil West,SS0505,Mariem East,Mariem East,SS050509,Nyamlel Phcc,QmLCLtMHmmw,Nyamlel PHCC,9.1378175,26.9822222,phcc,PHCC,1
North Bahr,SS05,Aweil West,SS0505,Gomjuer Centre,Gomjuer Centre,SS050506,Nyamlel Tb Hospital,TEMP0182ldjljdla,NA,9.137846,26.9824559,hospital,HOSPITAL,1
North Bahr,SS05,Aweil West,SS0505,Mariem East,Mariem East,SS050509,Nyinbouli Phcc,bPczM9peo35,Nyinbouli PHCC,9.02163,26.507,phcc,PHCC,1
North Bahr,SS05,Aweil West,SS0505,Mariem East,Mariem East,SS050509,Pantit Phcu,wlgksjgqgJy,Pantit PHCU,9.0836184,26.9170168,phcu,PHCU,1
North Bahr,SS05,Aweil West,SS0505,Mariem West,Mariem West,SS050510,Riangangon Phcu,eKrzHS4FcLm,Riangangon PHCU,9.120519999999999,27.07186,phcu,PHCU,1
North Bahr,SS05,Aweil West,SS0505,Mariem East,Mariem East,SS050509,Rualngol Phcu,YDvPISTja1j,Rualngol PHCU,8.8734982,27.375023,phcu,PHCU,1
North Bahr,SS05,Aweil West,SS0505,Mariem East,Mariem East,SS050509,Rumtiit Phcu,zN65zg1OPeY,Rumtiit PHCU,8.7610139,27.2602402,phcu,PHCU,1
North Bahr,SS05,Aweil West,SS0505,Mariem West,Mariem West,SS050510,Udhum Dtc Phcc,aU4qZydKIBY,Udhum DTC PHCC,8.887706,27.2534774,phcc,PHCC,1
North Bahr,SS05,Aweil West,SS0505,Mariem East,Mariem East,SS050509,Wedweil Phcc,HJXC2ZyJXom,Wedweil PHCC,9.0049807,27.1915997,phcu,PHCU,1
North Bahr,SS05,Aweil West,SS0505,Mariem East,Mariem East,SS050509,Wungiir Phcu,KLpGvRpudfa,Wungiir PHCU,9.119819999999999,26.75597,phcu,PHCU,1
Lakes,SS04,Awerial,SS0401,Abuyong,Abuyong,SS040101,Abuyung Phcu,y13EQSM0aFS,Abuyung PHCU,6.354579999999999,31.12789,phcu,PHCU,1
Lakes,SS04,Awerial,SS0401,Bun-Agok,Bun-Agok,SS040103,Aguorkuoth Phcu,TEMPjso083lfls,Aguorkuoth PHCU,6.1393546,31.1375955,phcu,PHCU,1
Lakes,SS04,Awerial,SS0401,Dor,Dor,SS040104,Awerial Phcu,oX5NCqRnce6,Awerial PHCU,6.1281609999999995,31.170486,phcu,PHCU,1
Lakes,SS04,Awerial,SS0401,Bun-Agok,Bun-Agok,SS040103,Bunagok Phcc,goSJRXs3Sos,Bunagok PHCC,6.21347,30.99541,phcc,PHCC,1
Lakes,SS04,Awerial,SS0401,Dor,Dor,SS040104,Dor Phcu,cRqbykE2lKt,Dor PHCU,6.05065,31.28618,phcu,PHCU,1
Lakes,SS04,Awerial,SS0401,Puluk,Puluk,SS040107,Kalthok Phcu,UM0b6bZFTww,Kalthok PHCU,5.880311,31.520667,phcu,PHCU,1
Lakes,SS04,Awerial,SS0401,Puluk,Puluk,SS040107,Minkaman Phcc,VszNPo1dWz1,Minkaman PHCC,6.056303000000001,31.512286,phcc,PHCC,1
Lakes,SS04,Awerial,SS0401,Puluk,Puluk,SS040107,Rhc,vZmASgExiD2,RHC,6.0488354,31.5071474,phcc,PHCC,1
Jonglei,SS03,Ayod,SS0302,Pajiek,Pajiek,SS030206,Ayod Phcc,m5y6WD8Tfbo,Ayod PHCC,8.12199,31.41376,phcc,PHCC,1
Jonglei,SS03,Ayod,SS0302,Pajiek,Pajiek,SS030206,Gorwai Phcc,oRGmGEPOblN,Gorwai PHCC,8.1384,31.1919,phcc,PHCC,1
Jonglei,SS03,Ayod,SS0302,Kurwai,Kurwai,SS030202,Haat Phcu,xBDvxV51rtO,Haat PHCU,8.51648,30.63336,phcu,PHCU,1
Jonglei,SS03,Ayod,SS0302,Wau,Wau,SS030207,Jiech / Wau Phcc,F1vLCeN1PtI,Jiech / Wau PHCC,8.37239,31.13615,phcc,PHCC,1
Jonglei,SS03,Ayod,SS0302,Mogok,Mogok,SS030204,Kandak Phcu,IipPtVuuu2V,Kandak PHCU,8.43226,31.34667,phcu,PHCU,1
Jonglei,SS03,Ayod,SS0302,Wau,Wau,SS030207,Kharmun Phcu,MseHO6OMtAk,Kharmun PHCU,8.26443,31.36264,phcu,PHCU,1
Jonglei,SS03,Ayod,SS0302,Pajiek,Pajiek,SS030206,Maar Phcu,CJF2Ms1fYWD,Maar PHCU,8.48997,30.681,phcu,PHCU,1
Jonglei,SS03,Ayod,SS0302,Pagil,Pagil,SS030205,Manime Phcc,uZtTPKVVk3I,Manime PHCC,8.61122,30.71897,phcc,PHCC,1
Jonglei,SS03,Ayod,SS0302,Mogok,Mogok,SS030204,Mogok Phcc,HG7ikzCRcQD,Mogok PHCC,8.40298,31.33491,phcc,PHCC,1
Jonglei,SS03,Ayod,SS0302,Kurwai,Kurwai,SS030202,Nyawit Phcu,qddFWAT2qvQ,Nyawit PHCU,7.71488,30.64007,phcu,PHCU,1
Jonglei,SS03,Ayod,SS0302,Wau,Wau,SS030207,Padek Phcc,SF1iZzZ7qSY,Padek PHCC,8.1643,31.13908,phcc,PHCC,1
Jonglei,SS03,Ayod,SS0302,Pagil,Pagil,SS030205,Pagil Phcc,mSAZP91HScC,Pagil PHCC,8.70805,31.26611,phcc,PHCC,1
Jonglei,SS03,Ayod,SS0302,Pagil,Pagil,SS030205,Wechding Phcu,RbNefjY7CO8,Wechding PHCU,8.767561,31.054431,phcu,PHCU,1
Upper Nile,SS07,Baliet,SS0701,Adong,Adong,SS070102,Adong Phcc,VLB5WUC9xuz,Adong PHCC,9.24329,32.15636,phcc,PHCC,1
Upper Nile,SS07,Baliet,SS0701,Akoka,Akoka,SS070103,Akoka Phcc,dusXKE4iP78,Akoka PHCC,9.74001,32.172110000000004,phcc,PHCC,1
Upper Nile,SS07,Baliet,SS0701,Akotweng,Akotweng,SS070104,Bai-Chan Phcu,XI2OFKPPcrl,Bai-chan PHCU,9.92001,32.17362,phcu,PHCU,1
Upper Nile,SS07,Baliet,SS0701,Nyongkuach,Nyongkuach,SS070106,Baliet Phcc,Kgw8QOZNTpO,Baliet PHCC,9.296,32.0578,phcc,PHCC,1
Upper Nile,SS07,Baliet,SS0701,Akoka,Akoka,SS070103,Bienythiang Phcu,WgIij85ZO9T,Bienythiang PHCU,9.83291,32.03771,phcc,PHCC,1
Upper Nile,SS07,Baliet,SS0701,Gel Achiel,Gel Achiel,SS070105,Gellachol Phcu,rloPT3DQ8po,Gellachol PHCU,9.10067,32.36937,phcu,PHCU,1
Upper Nile,SS07,Baliet,SS0701,Wunthow,Wunthow,SS070109,Riang Phcu,SWkJUemVmss,Riang PHCU,9.84351,32.10498,phcu,PHCU,1
Upper Nile,SS07,Baliet,SS0701,Nyongkuach,Nyongkuach,SS070106,Riangnum Phcu,kTpSlh806Xe,Riangnum PHCU,9.33028,32.02087,phcu,PHCU,1
Upper Nile,SS07,Baliet,SS0701,Rom,Rom,SS070108,Rom Phcu,fxQ2Y1dkzaS,Rom PHCU,9.882,32.15379,phcu,PHCU,1
Upper Nile,SS07,Baliet,SS0701,Abwong,Abwong,SS070101,Wunbut Phcu,DXHjlSohTm3,Wunbut PHCU,9.15684,32.20829,phcu,PHCU,1
Jonglei,SS03,Bor South,SS0303,Jalle,Jalle,SS030304,Akuai Deng Phcu,mitMl2MBmQ5,Akuai Deng PHCU,6.56393,31.5301,phcu,PHCU,1
Jonglei,SS03,Bor South,SS0303,Anyidi,Anyidi,SS030301,Anyidi Phcc,z2eqxz7PLcm,Anyidi PHCC,6.1938,31.56473,phcc,PHCC,1
Jonglei,SS03,Bor South,SS0303,Bor,Bor,SS030303,Bor State Hospital,wesFmwsG9OY,Bor State HOSPITAL,6.20645,31.55588,hospital,HOSPITAL,1
Jonglei,SS03,Bor South,SS0303,Makuach,Makuach,SS030306,Gakyuom Phcu,W9ZSCwpBL6Q,Gakyuom PHCU,6.23524,31.57096,phcu,PHCU,1
Jonglei,SS03,Bor South,SS0303,Jalle,Jalle,SS030304,Jalle Phcc,esj324SvCIa,Jalle PHCC,6.67189,31.48421,phcc,PHCC,1
Jonglei,SS03,Bor South,SS0303,Jalle,Jalle,SS030304,Kolmerak Phcu,psqdrqau2s2,Kolmerak PHCU,6.61947,31.51721,phcu,PHCU,1
Jonglei,SS03,Bor South,SS0303,Kolnyang,Kolnyang,SS030305,Kolnyang Phcc,VfhRFbcBr9g,Kolnyang PHCC,6.12538,31.58081,phcc,PHCC,1
Jonglei,SS03,Bor South,SS0303,Makuach,Makuach,SS030306,Lualdit Phcu,jEPSk679Mh6,Lualdit PHCU,6.23641,31.61048,phcu,PHCU,1
Jonglei,SS03,Bor South,SS0303,Baidit,Baidit,SS030302,Makol-Cuei Phcu,qxcEdRi9g1s,Makol-Cuei PHCU,6.378693315,31.64927596,phcu,PHCU,1
Jonglei,SS03,Bor South,SS0303,Kolnyang,Kolnyang,SS030305,Malek Phcu,DLehMA62jkM,Malek PHCU,6.06775,31.6054,phcu,PHCU,1
Jonglei,SS03,Bor South,SS0303,Bor,Bor,SS030303,Malou Phcu,zLWdh1E4LWZ,Malou PHCU,6.2288,31.55861,phcu,PHCU,1
Jonglei,SS03,Bor South,SS0303,Anyidi,Anyidi,SS030301,Mareng Phcu,EAdJBe9ejHT,Mareng PHCU,6.20257,31.71395,phcu,PHCU,1
Jonglei,SS03,Bor South,SS0303,Baidit,Baidit,SS030302,Mathiang Phcu,uRa2CIseBt3,Mathiang PHCU,6.49546,31.53532,phcu,PHCU,1
Jonglei,SS03,Bor South,SS0303,Makuach,Makuach,SS030306,Palabach Phcu,BzSRYzMijb6,Palabach PHCU,6.2825,31.56683,phcu,PHCU,1
Jonglei,SS03,Bor South,SS0303,Kolnyang,Kolnyang,SS030305,Pariak Phcc,VxCdwwGXdI8,Pariak PHCC,5.97125,31.66048,phcc,PHCC,1
Jonglei,SS03,Bor South,SS0303,Baidit,Baidit,SS030302,Tong Phcu,rYzlr4l5x7F,Tong PHCU,6.40055,31.5687,phcu,PHCU,1
East Eq,SS02,Budi,SS0201,Napak,Napak,SS020108,Chawa Phcu,EYpNycp96cd,Chawa PHCU,4.73338,33.24401,phcu,PHCU,1
East Eq,SS02,Budi,SS0201,Komori,Komori,SS020102,Chukudum Hospital,i3zup3tchmp,Chukudum HOSPITAL,4.227969999999999,33.48606,hospital,HOSPITAL,1
East Eq,SS02,Budi,SS0201,Loriyok,Loriyok,SS020104,Frak-Sika Phcu,bR5RhAYLIH5,FRAK-SIKA PHCU,4.3826600000000004,33.34868,phcu,PHCU,1
East Eq,SS02,Budi,SS0201,Nauro,Nauro,SS020103,Haliba Phcu,qQojJT95Iu1,Haliba PHCU,4.4516100000000005,33.4448,phcu,PHCU,1
East Eq,SS02,Budi,SS0201,Nagishot,Nagishot,SS020107,Kadumakuc Phcu,wmGHRIGymBf,Kadumakuc PHCU,4.216640000000001,33.59991,phcu,PHCU,1
East Eq,SS02,Budi,SS0201,Loudo,Loudo,SS020106,Kapeta Phcu,BiM4c5SpOi6,Kapeta PHCU,4.309200000000001,33.64248,phcu,PHCU,1
East Eq,SS02,Budi,SS0201,Nauro,Nauro,SS020103,Kathac Phcu,wywCpuGHuEt,Kathac PHCU,4.35205,33.5495,phcu,PHCU,1
East Eq,SS02,Budi,SS0201,Nauro,Nauro,SS020103,Kibongorok Phcu,ku6p2NtYBVz,Kibongorok PHCU,4.4021099999999995,33.52178,phcu,PHCU,1
East Eq,SS02,Budi,SS0201,Lotukei,Lotukei,SS020105,Kikilai Phcc,rzbxRwvKymW,Kikilai PHCC,4.133179999999999,33.6022,phcc,PHCC,1
East Eq,SS02,Budi,SS0201,Kimotong,Kimotong,SS020101,Kimotong Phcc,Fl0ZidYFLEg,Kimotong PHCC,4.684899999999999,33.26397,phcc,PHCC,1
East Eq,SS02,Budi,SS0201,Komori,Komori,SS020102,Komiri Phcc,crPcGgFFnVk,Komiri PHCC,4.227561,33.492839,phcc,PHCC,1
East Eq,SS02,Budi,SS0201,Komori,Komori,SS020102,Lojiong Phcu,hMek4rCAHQ1,Lojiong PHCU,4.28673,33.43199,phcu,PHCU,1
East Eq,SS02,Budi,SS0201,Komori,Komori,SS020102,Lokidele Phcu,nsqzsCQ6S8i,Lokidele PHCU,4.224549999999999,33.55291,phcu,PHCU,1
East Eq,SS02,Budi,SS0201,Lotukei,Lotukei,SS020105,Lorema Phcc,nJdHDRZr8to,Lorema PHCC,4.160629999999999,33.66069,phcc,PHCC,1
East Eq,SS02,Budi,SS0201,Loriyok,Loriyok,SS020104,Loriyok Phcu,GuzpyLAP434,Loriyok PHCU,4.51921,33.32309,phcu,PHCU,1
East Eq,SS02,Budi,SS0201,Nagishot,Nagishot,SS020107,Nagishot Phcc,w6jEkgBiMw6,Nagishot PHCC,4.26734,33.56633,phcc,PHCC,1
East Eq,SS02,Budi,SS0201,Loudo,Loudo,SS020106,Nathilani Phcu,lMGHqRjgj8s,Nathilani PHCU,4.334458,33.679093,phcu,PHCU,1
East Eq,SS02,Budi,SS0201,Loudo,Loudo,SS020106,Ngatuba Phcu,E4cZHPJq3OM,Ngatuba PHCU,4.25673,33.69916,phcu,PHCU,1
East Eq,SS02,Budi,SS0201,Nauro,Nauro,SS020103,Ngauro Phcc,vknLbpsFuKA,Ngauro PHCC,4.44648,33.68476,phcc,PHCC,1
East Eq,SS02,Budi,SS0201,Lotukei,Lotukei,SS020105,Piobokoi Phcu,KNI7sz29X43,Piobokoi PHCU,4.084979999999999,33.75889,phcu,PHCU,1
East Eq,SS02,Budi,SS0201,Nauro,Nauro,SS020103,Tulugi Phcu,DnAzm6we1iK,Tulugi PHCU,4.350169999999999,33.62521,phcu,PHCU,1
Jonglei,SS03,Canal/Pigi,SS0304,Mareng,Mareng,SS030406,Canal Phcc,wLrEFZktgIJ,Canal PHCC,9.36284,31.54954,phcc,PHCC,1
Jonglei,SS03,Canal/Pigi,SS0304,Atar,Atar,SS030402,Diel Phcu,XcDJI5wUv8X,Diel PHCU,9.37418,31.30278,phcu,PHCU,1
Jonglei,SS03,Canal/Pigi,SS0304,Atar,Atar,SS030402,Khorfulus Phcc,Tu7Uu6UhGFE,Khorfulus PHCC,9.31476,31.57998,phcc,PHCC,1
Jonglei,SS03,Canal/Pigi,SS0304,Korwach,Korwach,SS030405,Khorwac Phcc,y5UEMRBtdHt,Khorwac PHCC,9.2335,31.15934,phcc,PHCC,1
Jonglei,SS03,Canal/Pigi,SS0304,Korwach,Korwach,SS030405,Kolanyang Phcu,cM1tRbPp9PX,Kolanyang PHCU,9.33731,31.10725,phcu,PHCU,1
Jonglei,SS03,Canal/Pigi,SS0304,Korwach,Korwach,SS030405,Patai Phcu,dkKaUTlbv2f,Patai PHCU,9.22517,31.13124,phcu,PHCU,1
Lakes,SS04,Cueibet,SS0402,Abiriu,Abiriu,SS040201,Abiriu Phcc,X1KzCfAWQy4,Abiriu PHCC,6.939310000000001,29.42391,phcc,PHCC,1
Lakes,SS04,Cueibet,SS0402,Ngap,Ngap,SS040205,Agangrial Phcu,IFoxvWf3JFx,Agangrial PHCU,6.8523,29.22549,phcu,PHCU,1
Lakes,SS04,Cueibet,SS0402,Abiriu,Abiriu,SS040201,Ameth Duol Phcu,HbUyACKhw9F,Ameth Duol PHCU,6.892179999999999,29.52191,phcu,PHCU,1
Lakes,SS04,Cueibet,SS0402,Malou Pec,Malou Pec,SS040204,Bahrgel Phcu,ws9tZ5lR3lZ,Bahrgel PHCU,7.018962,29.155026,phcu,PHCU,1
Lakes,SS04,Cueibet,SS0402,Citcok,Citcok,SS040202,Chitchok Phcc,upnocuYN7Ri,Chitchok PHCC,7.194868,29.222009,phcc,PHCC,1
Lakes,SS04,Cueibet,SS0402,Malou Pec,Malou Pec,SS040204,Cueibet County Hospital,AWKbfRNMd4O,Cueibet County Hospital,7.013110999999999,29.241811,hospital,HOSPITAL,1
Lakes,SS04,Cueibet,SS0402,Duony,Duony,SS040203,Duony Phcu,wG6sWUBxZUj,Duony PHCU,6.96816,29.37174,phcu,PHCU,1
Lakes,SS04,Cueibet,SS0402,Abiriu,Abiriu,SS040201,Kubri William Phcu,KTiWbZ6Atgi,kubri William PHCU,6.91065,29.47567,phcu,PHCU,1
Lakes,SS04,Cueibet,SS0402,Malou Pec,Malou Pec,SS040204,Langdit Phcu,vGjvyhjPFGM,Langdit PHCU,7.059,29.09,phcu,PHCU,1
Lakes,SS04,Cueibet,SS0402,Malou Pec,Malou Pec,SS040204,Malou Pec Phcc,W4e6ppZy8yB,Malou Pec PHCC,7.110417999999999,29.029535,phcc,PHCC,1
Lakes,SS04,Cueibet,SS0402,Duony,Duony,SS040203,Mayath Phcu,IbhJS9sS1pr,Mayath PHCU,6.9903200000000005,29.32876,phcu,PHCU,1
Lakes,SS04,Cueibet,SS0402,Ngap,Ngap,SS040205,Mayen Thon Phcu,LtsZMr1lUW7,Mayen Thon PHCU,6.971540000000001,29.22183,phcu,PHCU,1
Lakes,SS04,Cueibet,SS0402,Malou Pec,Malou Pec,SS040204,Pagor Phcu,EYexXzGX5ME,Pagor PHCU,7.209278000000001,29.034544,phcu,PHCU,1
Lakes,SS04,Cueibet,SS0402,Pagor,Pagor,SS040206,Tiap Tiap Phcu,jILKXi7hBpZ,Tiap Tiap PHCU,7.325155999999999,29.324202,phcu,PHCU,1
Jonglei,SS03,Duk,SS0305,Dongchak,Dongchak,SS030502,Amiel Phcu,AR8cfTXbzaO,Amiel PHCU,7.6975,31.27888,phcu,PHCU,1
Jonglei,SS03,Duk,SS0305,Padiet,Padiet,SS030503,Ayueldit Phcu,OoRdti95mUa,Ayueldit PHCU,7.72432,31.33055,phcu,PHCU,1
Jonglei,SS03,Duk,SS0305,Padiet,Padiet,SS030503,Dorok Phcu,NHdlDlwaGrW,Dorok PHCU,7.75805,31.29972,phcu,PHCU,1
Jonglei,SS03,Duk,SS0305,Payuel,Payuel,SS030504,Duk Lost Boy Hospital,wSm8D2FGwtr,Duk Lost Boy Hospital,7.469322,31.501797,phcc,PHCC,1
Jonglei,SS03,Duk,SS0305,Padiet,Padiet,SS030503,Koyom Island Phcu,ljwF7v1WYNv,Koyom Island PHCU,7.441111,30.791667,phcu,PHCU,1
Jonglei,SS03,Duk,SS0305,Padiet,Padiet,SS030503,Padiet Phcc,diRwR2TzfAn,Padiet PHCC,7.74916,31.39555,phcc,PHCC,1
Jonglei,SS03,Duk,SS0305,Panyang,Panyang,SS030506,Pajut Kurgai Phcc,irkSUtUX8iG,Pajut Kurgai PHCC,7.74331,31.67962,phcc,PHCC,1
Jonglei,SS03,Duk,SS0305,Ageer,Ageer,SS030501,Patuenoi Phcu,zy2JXWRgzxb,Patuenoi PHCU,7.51851,31.47879,phcu,PHCU,1
Jonglei,SS03,Duk,SS0305,Panyang,Panyang,SS030506,Patuet Phcu,yBP79xC2upt,Patuet PHCU,7.84916,31.69555,phcu,PHCU,1
Jonglei,SS03,Duk,SS0305,Ageer,Ageer,SS030501,Poktap Phcc,Kytm6e0bufQ,Poktap PHCC,7.45582,31.40912,phcc,PHCC,1
West Eq,SS10,Ezo,SS1001,Andari,Andari,SS100101,Andari Phcu,uCzbAidUUpq,Andari PHCU,4.94728,27.7254,phcu,PHCU,1
West Eq,SS10,Ezo,SS1001,Andari,Andari,SS100101,Bafuka Phcu,ETuFaKyE0Fs,Bafuka PHCU,4.978220000000001,27.7804,phcu,PHCU,1
West Eq,SS10,Ezo,SS1001,Bagidi,Bagidi,SS100102,Bagidi Phcu,X4zRNGDnnw0,Bagidi PHCU,5.1826099999999995,27.66991,phcu,PHCU,1
West Eq,SS10,Ezo,SS1001,Ezo Centre,Ezo Centre,SS100104,Baikpa Phcu,CEW91p8bua2,Baikpa PHCU,5.09535,27.47464,phcu,PHCU,1
West Eq,SS10,Ezo,SS1001,Bariguna,Bariguna,SS100103,Bambaraze Phcu,L40EIDhNdKF,Bambaraze PHCU,5.1741589999999995,27.393533,phcu,PHCU,1
West Eq,SS10,Ezo,SS1001,Bagidi,Bagidi,SS100102,Bandala Phcu (Ezo),trIzVrDTw32,Bandala PHCU (Ezo),5.1444139999999985,27.526344,phcu,PHCU,1
West Eq,SS10,Ezo,SS1001,Bariguna,Bariguna,SS100103,Banduguyo Phcu,p1uEYiw9oNb,Banduguyo PHCU,5.1774036,27.4422375,phcu,PHCU,1
West Eq,SS10,Ezo,SS1001,Andari,Andari,SS100101,Bangangai Phcu,TqPyprm5WDp,Bangangai PHCU,4.918405,27.716547,phcu,PHCU,1
West Eq,SS10,Ezo,SS1001,Andari,Andari,SS100101,Baragu Phcu,QjcNAnIwCT0,Baragu PHCU,4.982557,27.688099,phcu,PHCU,1
West Eq,SS10,Ezo,SS1001,Bariguna,Bariguna,SS100103,Bariabande Phcu,CUHlDFAzpSk,Bariabande PHCU,4.982395,27.688003,phcu,PHCU,1
West Eq,SS10,Ezo,SS1001,Bariguna,Bariguna,SS100103,Bariguna Phcu,SIM6UyPDaOC,Bariguna PHCU,5.318322,27.27382,phcu,PHCU,1
West Eq,SS10,Ezo,SS1001,Ezo Centre,Ezo Centre,SS100104,Degere Phcu,gF1Ip49PDzo,Degere PHCU,5.1031705,27.4352577,phcu,PHCU,1
West Eq,SS10,Ezo,SS1001,Naandi,Naandi,SS100105,Diabio Phcu,p8VVtV4PoDZ,Diabio PHCU,4.971670000000001,28.02514,phcu,PHCU,1
West Eq,SS10,Ezo,SS1001,Ezo Centre,Ezo Centre,SS100104,Ecs Masumbu Phcu,EEWVUlVRYzQ,ECS Masumbu PHCU,5.068899999999999,27.46859,phcu,PHCU,1
West Eq,SS10,Ezo,SS1001,Ezo Centre,Ezo Centre,SS100104,Ezo Hospital,EiULmp38gHE,Ezo Hospital,5.077109999999999,27.46581,hospital,HOSPITAL,1
West Eq,SS10,Ezo,SS1001,Ezo Centre,Ezo Centre,SS100104,Madoro Phcc,XSXqcp9Wq8C,Madoro PHCC,5.07049,27.5349,phcc,PHCC,1
West Eq,SS10,Ezo,SS1001,Yangiri,Yangiri,SS100106,Mafuyu Phcu,GhjKmPES8YF,Mafuyu PHCU,4.814246,27.867815,phcu,PHCU,1
West Eq,SS10,Ezo,SS1001,Ezo Centre,Ezo Centre,SS100104,Mangbangau Phcu,KG9dKBvqRgy,Mangbangau PHCU,5.05377,27.4986449,phcu,PHCU,1
West Eq,SS10,Ezo,SS1001,Ezo Centre,Ezo Centre,SS100104,Manzinzi Phcu,GpU7KZT9ZZP,Manzinzi PHCU,5.076846000000001,27.465641,phcu,PHCU,1
West Eq,SS10,Ezo,SS1001,Naandi,Naandi,SS100105,Marangu Phcu,Jm63mRg23uO,Marangu PHCU,4.9232334,28.0321245,phcu,PHCU,0
West Eq,SS10,Ezo,SS1001,Ezo Centre,Ezo Centre,SS100104,Mariagba Phcu,wboQQh20esG,Mariagba PHCU,5.030691000000001,27.614779,phcu,PHCU,1
West Eq,SS10,Ezo,SS1001,Bagidi,Bagidi,SS100102,Moso Phcu,sQBcJrZVUsg,Moso PHCU,5.201241000000001,27.926925,phcu,PHCU,1
West Eq,SS10,Ezo,SS1001,Naandi,Naandi,SS100105,Naandi Phcc,Ky79dh4ChP1,Naandi PHCC,5.972244000000001,27.911891,phcc,PHCC,1
West Eq,SS10,Ezo,SS1001,Naandi,Naandi,SS100105,Nagasi Phcu,qETxTwYpHyC,Nagasi PHCU,4.815415999999999,27.901414,phcu,PHCU,1
West Eq,SS10,Ezo,SS1001,Bagidi,Bagidi,SS100102,Nangbabe1 Phcu,vTp4vkqQDPH,Nangbabe1 PHCU,4.972764000000001,27.911732,phcu,PHCU,1
West Eq,SS10,Ezo,SS1001,Ezo Centre,Ezo Centre,SS100104,Nanzinga Phcu,thXJo6oloMS,Nanzinga PHCU,4.923133,28.032132,phcu,PHCU,1
West Eq,SS10,Ezo,SS1001,Ezo Centre,Ezo Centre,SS100104,Napere Phcu,OCYBvJCaRdp,Napere PHCU,5.073230000000001,27.47618,phcu,PHCU,1
West Eq,SS10,Ezo,SS1001,Naandi,Naandi,SS100105,Nazizi Phcc,TEMP66237erqyer,NA,4.9723706,27.9117414,phcc,PHCC,1
West Eq,SS10,Ezo,SS1001,Naandi,Naandi,SS100105,Nyasi Phcu,knBs0a5gNdS,Nyasi PHCU,4.858982999999999,27.87545,phcu,PHCU,1
West Eq,SS10,Ezo,SS1001,Yangiri,Yangiri,SS100106,Yangiri Phcc,C3962wRGOWj,Yangiri PHCC,5.1815,27.956068,phcc,PHCC,1
West Eq,SS10,Ezo,SS1001,Yangiri,Yangiri,SS100106,Yangura Phcu,EghYlLEs94x,Yangura PHCU,5.145086999999999,27.976455,phcu,PHCU,1
Jonglei,SS03,Fangak,SS0306,Manajang,Manajang,SS030601,Juaibor Phcc,FOlQkO84SPy,Juaibor PHCC,9.40132,30.67021,phcc,PHCC,1
Jonglei,SS03,Fangak,SS0306,Phom,Phom,SS030605,Keew Phcc,Bmkq76MEp4z,Keew PHCC,9.26298,30.63498,phcc,PHCC,1
Jonglei,SS03,Fangak,SS0306,Paguir,Paguir,SS030604,Koat Nyakong Phcu,GkJfHmBujAp,Koat Nyakong PHCU,9.4386,31.05395,phcu,PHCU,1
Jonglei,SS03,Fangak,SS0306,Manajang,Manajang,SS030601,Kuemduok Phcu,dBSla4R7qXb,Kuemduok PHCU,9.21002,30.94483,phcu,PHCU,1
Jonglei,SS03,Fangak,SS0306,Manajang,Manajang,SS030601,Kuernyang Phcc,NFdLaRvJKIn,Kuernyang PHCC,9.3198,30.88526,phcc,PHCC,1
Jonglei,SS03,Fangak,SS0306,Paguir,Paguir,SS030604,Kuerphon Phcu,aiA6nEV2gIY,Kuerphon PHCU,9.107064,30.41172,phcu,PHCU,1
Jonglei,SS03,Fangak,SS0306,Manajang,Manajang,SS030601,Mandeng Phcu,rnYfOcBgf40,Mandeng PHCU,9.38675,30.83775,phcu,PHCU,1
Jonglei,SS03,Fangak,SS0306,Mareang,Mareang,SS030602,Nyadin Phcc,AwU5hPjjbg2,Nyadin PHCC,8.79868,30.66779,phcc,PHCC,1
Jonglei,SS03,Fangak,SS0306,Paguir,Paguir,SS030604,Paguir Phcu,mKCGy8C98V6,Paguir PHCU,9.10677,30.75883,phcu,PHCU,1
Jonglei,SS03,Fangak,SS0306,Phom,Phom,SS030605,Pakaan Phcc,GgYDV5fCCLz,Pakaan PHCC,9.38606,31.10943,phcc,PHCC,1
Jonglei,SS03,Fangak,SS0306,Paguir,Paguir,SS030604,Pulita Phcu,VLpL4GtI6hb,Pulita PHCU,9.132516,30.39363,phcu,PHCU,1
Upper Nile,SS07,Fashoda,SS0702,Dethok,Dethok,SS070201,Aburoc Phcu,Pb4sJmFTETR,Aburoc PHCU,10.10539,32.08468,phcu,PHCU,1
Upper Nile,SS07,Fashoda,SS0702,Lul,Lul,SS070204,Bol Phcu,y9qUFKh7wey,Bol PHCU,9.721505,31.841594,phcu,PHCU,0
Upper Nile,SS07,Fashoda,SS0702,Dethok,Dethok,SS070201,Detwok Phcu,oyZTj9h7TKl,Detwok PHCU,10.00799,32.18204,phcu,PHCU,1
Upper Nile,SS07,Fashoda,SS0702,Kodok,Kodok,SS070202,Gollo Phcu,znn1oyqeGeF,Gollo PHCU,9.9601,32.15322,phcu,PHCU,1
Upper Nile,SS07,Fashoda,SS0702,Kodok Town,Kodok Town,SS070203,Kodok Hospital,KTwTmj4YNs4,Kodok Hospital,9.8907,32.1163,phcc,PHCC,1
Upper Nile,SS07,Fashoda,SS0702,Lul,Lul,SS070204,Lul West Phcu,VafYZGRtkMz,Lul West PHCU,9.72843,31.85898,phcc,PHCC,1
Upper Nile,SS07,Fashoda,SS0702,Dethok,Dethok,SS070201,Mallo Phcu,FzeAAoYRWHB,Mallo PHCU,10.04908,32.2088,phcu,PHCU,1
Upper Nile,SS07,Fashoda,SS0702,Lul,Lul,SS070204,Orinyi Phcc,dqK6furenke,Orinyi PHCC,9.86790869,31.8898511,phcc,PHCC,1
Upper Nile,SS07,Fashoda,SS0702,Kodok,Kodok,SS070202,Otego Phcu,VTdMW0fpAhr,Otego PHCU,9.894,31.99256,phcu,PHCU,1
Warrap,SS08,Gogrial East,SS0801,Toch North,Toch North,SS080105,Ajogo Phcu,RI4pL5KdgcB,Ajogo PHCU,8.707149999999999,28.4252,phcu,PHCU,1
Warrap,SS08,Gogrial East,SS0801,Pathuon East,Pathuon East,SS080102,Angernger Phcu,LBPuilcr51E,Angernger PHCU,8.3712059,28.4262832,phcu,PHCU,1
Warrap,SS08,Gogrial East,SS0801,Nyang,Nyang,SS080101,Awut-Wut Phcu,OGcXHoaC8LJ,Awut-Wut PHCU,8.59385,28.61432,phcu,PHCU,1
Warrap,SS08,Gogrial East,SS0801,Toch East,Toch East,SS080104,Lietnhom Dtc Phcc,fC5wLjkGYG6,Lietnhom DTC PHCC,8.59759,28.4726,phcc,PHCC,1
Warrap,SS08,Gogrial East,SS0801,Pathuon West,Pathuon West,SS080103,Luonyaker Phcc,p0h0uXIRAcy,Luonyaker PHCC,8.22963,28.38975,phcc,PHCC,1
Warrap,SS08,Gogrial East,SS0801,Toch North,Toch North,SS080105,Majak-Nyuom Phcu,x9Zmp3tu9GT,Majak-Nyuom PHCU,8.72579,28.5307,phcu,PHCU,1
Warrap,SS08,Gogrial East,SS0801,Toch East,Toch East,SS080104,Maliai Phcu,vLKAH1Ih4TS,Maliai PHCU,8.39322,28.54096,phcu,PHCU,1
Warrap,SS08,Gogrial East,SS0801,Pathuon West,Pathuon West,SS080103,Matiel Phcu,l8G9kX8vyLt,Matiel PHCU,8.145109999999999,28.22859,phcu,PHCU,1
Warrap,SS08,Gogrial East,SS0801,Toch North,Toch North,SS080105,Mayom Chol Phcu,V2CHXq3kllK,Mayom Chol PHCU,8.410540000000001,28.40509,phcu,PHCU,1
Warrap,SS08,Gogrial East,SS0801,Pathuon East,Pathuon East,SS080102,Mayom-Bioung Phcu,S0fk4srRas9,Mayom-Bioung PHCU,8.2341799999999985,28.59403,phcu,PHCU,1
Warrap,SS08,Gogrial East,SS0801,Toch West,Toch West,SS080106,Panacier Phcu,Tz7Sumyf2AN,Panacier PHCU,8.615566000000001,28.361063,phcu,PHCU,1
Warrap,SS08,Gogrial East,SS0801,Toch West,Toch West,SS080106,Pinydit Phcu,pxdH2ujNJbh,Pinydit PHCU,8.41557,28.34449,phcu,PHCU,1
Warrap,SS08,Gogrial East,SS0801,Toch East,Toch East,SS080104,Ruot Phcu,GbwmpoBlWs2,Ruot PHCU,8.407580000000001,28.46314,phcu,PHCU,1
Warrap,SS08,Gogrial East,SS0801,Pathuon East,Pathuon East,SS080102,Yiik Adoor Phcu,IHkvw27OAgp,Yiik Adoor PHCU,8.247209999999997,28.46353,phcu,PHCU,1
Warrap,SS08,Gogrial West,SS0802,Kuac North,Kuac North,SS080207,Agei Phcu,cb0I9FwnTon,Agei PHCU,8.24627141,27.98133466,phcu,PHCU,1
Warrap,SS08,Gogrial West,SS0802,Kuac North,Kuac North,SS080207,Ajiep Phcu,dtpHLfGplRU,Ajiep PHCU,8.265550000000001,28.08942,phcu,PHCU,1
Warrap,SS08,Gogrial West,SS0802,Akon South,Akon South,SS080201,Akon Phcc,S4vRB5yyt5Z,Akon PHCC,8.887348,27.95695,phcc,PHCC,1
Warrap,SS08,Gogrial West,SS0802,Alek South,Alek South,SS080204,Alek Phcc,jLqTCTSrnzC,Alek PHCC,8.66394,28.14856,phcc,PHCC,1
Warrap,SS08,Gogrial West,SS0802,Riau,Riau,SS080209,Anguoth Phcu,BKdCNaY7m7j,Anguoth PHCU,8.77675,28.20044,phcu,PHCU,1
Warrap,SS08,Gogrial West,SS0802,Akon South,Akon South,SS080201,Ariang Phcu,cMbT7apS7V7,Ariang PHCU,8.9378634,27.8661887,phcu,PHCU,1
Warrap,SS08,Gogrial West,SS0802,Alek South,Alek South,SS080204,Atuk Kuel Phcu,Qt4QMurxKzA,Atuk Kuel PHCU,8.644059999999998,27.99594,phcu,PHCU,1
Warrap,SS08,Gogrial West,SS0802,Gogrial,Gogrial,SS080206,Gogrial Phcc,tSWDBLVbvD9,Gogrial PHCC,8.52683,28.10014,phcc,PHCC,1
Warrap,SS08,Gogrial West,SS0802,Alek West,Alek West,SS080205,Keet Phcu,a1Hzc1llmC2,Keet PHCU,8.818480000000001,28.07093,phcu,PHCU,1
Warrap,SS08,Gogrial West,SS0802,Kuac North,Kuac North,SS080207,Kuajok State Hospital,Qf6zm1BRggO,Kuajok State HOSPITAL,8.29658,27.98236,hospital,HOSPITAL,1
Warrap,SS08,Gogrial West,SS0802,Kuac South,Kuac South,SS080208,Mabior Atuot Phcu,TEMPeudo79csolj,NA,8.1092102,27.9564194,phcu,PHCU,1
Warrap,SS08,Gogrial West,SS0802,Kuac South,Kuac South,SS080208,Magai Phcu,Zp0hpzYQ6H7,Magai PHCU,8.104389999999999,28.00818,phcu,PHCU,1
Warrap,SS08,Gogrial West,SS0802,Akon North,Akon North,SS080202,Majakbol Phcu,bAxtMmPPMgi,Majakbol PHCU,9.1482677,27.9185399,phcu,PHCU,1
Warrap,SS08,Gogrial West,SS0802,Riau,Riau,SS080209,Majok Thany Phcu,mdA6nGcnxKH,Majok Thany PHCU,8.9466491,28.1844619,phcu,PHCU,1
Warrap,SS08,Gogrial West,SS0802,Kuac North,Kuac North,SS080207,Malek Phcu,mwykuIOrx8a,Malek PHCU,8.370800000000001,28.0224,phcu,PHCU,1
Warrap,SS08,Gogrial West,SS0802,Kuac North,Kuac North,SS080207,Malualmonyjoc Phcu,wnQXcEt77w7,Malualmonyjoc PHCU,8.353611,27.9241818,phcu,PHCU,1
Warrap,SS08,Gogrial West,SS0802,Gogrial,Gogrial,SS080206,Maluil Ajak Phcu,VqC22aauvfj,Maluil Ajak PHCU,8.528839999999999,27.97612,phcu,PHCU,1
Warrap,SS08,Gogrial West,SS0802,Gogrial,Gogrial,SS080206,Mandeng Phcu,TTGtJBS2IfJ,Mandeng PHCU,8.574599,27.9666132,phcu,PHCU,1
Warrap,SS08,Gogrial West,SS0802,Kuac North,Kuac North,SS080207,Mangar Phcu,TEMPsiufosudfo23,NA,8.3771646,27.9982187,phcu,PHCU,1
Warrap,SS08,Gogrial West,SS0802,Kuac North,Kuac North,SS080207,Mayen Gumel Phcc,wa1mLQFs5SL,Mayen Gumel PHCC,8.309746,27.94397831,phcc,PHCC,1
Warrap,SS08,Gogrial West,SS0802,Akon North,Akon North,SS080202,Mayen Phcu,ejDm2lpR0vZ,Mayen PHCU,9.016530000000001,27.92304,phcu,PHCU,1
Warrap,SS08,Gogrial West,SS0802,Alek North,Alek North,SS080203,Mayom Phcu,sx7C5QU6jmH,Mayom PHCU,8.682773,28.27306,phcu,PHCU,1
Warrap,SS08,Gogrial West,SS0802,Alek West,Alek West,SS080205,Nyokthiang Phcu,smSejZf5UJY,Nyokthiang PHCU,8.594159999999999,28.121267,phcu,PHCU,1
Warrap,SS08,Gogrial West,SS0802,Alek South,Alek South,SS080204,Pajokbeek Phcu,f4u0iiHILor,Pajokbeek PHCU,8.5696318,28.2258603,phcu,PHCU,1
Warrap,SS08,Gogrial West,SS0802,Riau,Riau,SS080209,Pakor Phcu,hqEaB6qcg4j,Pakor PHCU,8.934769999999999,28.11781,phcu,PHCU,1
Warrap,SS08,Gogrial West,SS0802,Riau,Riau,SS080209,Panliet Phcu,addukZNoG2A,Panliet PHCU,8.842369999999999,28.25539,phcu,PHCU,1
Warrap,SS08,Gogrial West,SS0802,Gogrial,Gogrial,SS080206,Paweny Phcc,TEMPabdkba79723,NA,8.5264804,28.1003684,phcu,PHCU,0
Warrap,SS08,Gogrial West,SS0802,Akon South,Akon South,SS080201,Peeth Phcu,rJ5J7I2cXVz,Peeth PHCU,8.96718,28.01134,phcu,PHCU,1
Warrap,SS08,Gogrial West,SS0802,Kuac North,Kuac North,SS080207,Police Phcc,mZWw9vimBia,Police PHCC,8.2964892,27.9826577,phcc,PHCC,1
Warrap,SS08,Gogrial West,SS0802,Gogrial,Gogrial,SS080206,Riangagany Phcu,f5AJ71YxH2C,Riangagany PHCU,8.499504,27.8211782,phcu,PHCU,1
Warrap,SS08,Gogrial West,SS0802,Kuac South,Kuac South,SS080208,Thurnyior Phcu,klPqO70g4yp,Thurnyior PHCU,8.144919999999997,28.13195,phcu,PHCU,1
Warrap,SS08,Gogrial West,SS0802,Kuac South,Kuac South,SS080208,Wachleeth Phcu,NA,NA,8.0647104,28.1372406,phcu,PHCU,1
Warrap,SS08,Gogrial West,SS0802,Kuac South,Kuac South,SS080208,Weel Phcu,TEMPpqu9378afdn,NA,8.0805032,28.0939167,phcu,PHCU,0
Unity,SS06,Guit,SS0602,Guit,Guit,SS060201,Guit Phcc,Vr8wp1GIyx8,Guit PHCC,9.144742,29.987039,phcu,PHCU,1
Unity,SS06,Guit,SS0602,Kedad,Kedad,SS060202,Kedat Phcu,A7UXCHbbY6P,Kedat PHCU,9.031339,30.061294,phcu,PHCU,1
Unity,SS06,Guit,SS0602,Kuach,Kuach,SS060203,Kuach Phcc,hVpj1v7ZGDD,Kuach PHCC,8.90207,30.02947,phcu,PHCU,1
Unity,SS06,Guit,SS0602,Niemni,Niemni,SS060205,Niemni Phcc,qLowRGqGrbL,Niemni PHCC,9.306375,30.026222,phcc,PHCC,1
Unity,SS06,Guit,SS0602,Kuerguini,Kuerguini,SS060204,Wathnyotni Phcu,gA9C1rrIcHB,Wathnyotni PHCU,9.353603000000001,29.908456,phcu,PHCU,1
West Eq,SS10,Ibba,SS1002,Nabanga,Nabanga,SS100205,Bamani Phcu,Ng7oY0JMyYV,Bamani PHCU,4.540436,29.171744,phcu,PHCU,1
West Eq,SS10,Ibba,SS1002,Madebe,Madebe,SS100202,Bambu Phcu,NA,NA,4.833979,28.9947409,phcu,PHCU,1
West Eq,SS10,Ibba,SS1002,Ibba Centre,Ibba Centre,SS100201,Duatuka Phcu,wCxn1uU7KoO,Duatuka PHCU,4.7908807,29.1232344,phcu,PHCU,1
West Eq,SS10,Ibba,SS1002,Ibba Centre,Ibba Centre,SS100201,Ibba Phcc,uBgFxsrfllW,Ibba PHCC,4.791005,29.1341706,phcc,PHCC,1
West Eq,SS10,Ibba,SS1002,Ibba Centre,Ibba Centre,SS100201,Ibba Prison Phcu,YdR59q7Fzkw,Ibba Prison PHCU,4.7926199,29.1354068,phcu,PHCU,0
West Eq,SS10,Ibba,SS1002,Madebe,Madebe,SS100202,Madebe Phcc,SuJv0v3iGDw,Madebe PHCC,4.7984726,28.997322,phcc,PHCC,1
West Eq,SS10,Ibba,SS1002,Manikakara,Manikakara,SS100203,Manikakare Phcu,J1EZUlxkVAq,Manikakare PHCU,4.84854992,29.25482653,phcu,PHCU,1
West Eq,SS10,Ibba,SS1002,Madebe,Madebe,SS100202,Marko Phcu,bQHfiYeA86z,Marko PHCU,4.7983,29.05345,phcu,PHCU,1
West Eq,SS10,Ibba,SS1002,Maruko,Maruko,SS100204,Maruko Phcu,dOhQINlUc5a,Maruko PHCU,5.18482,29.16204,phcu,PHCU,1
West Eq,SS10,Ibba,SS1002,Nabanga,Nabanga,SS100205,Nabanga Phcc,yWI9k6AM5pa,Nabanga PHCC,4.486200000000001,29.092217,phcc,PHCC,1
West Eq,SS10,Ibba,SS1002,Manikakara,Manikakara,SS100203,Rubu Phcu,hjwcN3VxQYN,Rubu PHCU,4.90667016,29.3465782,phcu,PHCU,1
West Eq,SS10,Ibba,SS1002,Maruko,Maruko,SS100204,Tanamuko Phcu,UyVbu42BdvV,Tanamuko PHCU,5.139959,28.777478,phcu,PHCU,1
West Eq,SS10,Ibba,SS1002,Ibba Centre,Ibba Centre,SS100201,Wowo Phcu,NA,NA,4.6299955,29.2015033,phcu,PHCU,0
West Eq,SS10,Ibba,SS1002,Madebe,Madebe,SS100202,Yosia Phcu,l57VkwEzb5k,Yosia PHCU,4.90143,28.98519,phcu,PHCU,1
East Eq,SS02,Ikotos,SS0202,Losite,Losite,SS020206,Ateda Phcu,OwkMc5kQxN0,Ateda PHCU,3.82656,33.4358614,phcu,PHCU,1
East Eq,SS02,Ikotos,SS0202,Losite,Losite,SS020206,Biira Phcc,ppp5asdsqtC,Biira PHCC,3.83313,33.58209,phcc,PHCC,1
East Eq,SS02,Ikotos,SS0202,Lomohidang North,Lomohidang North,SS020204,Chahare Phcu,Mb8oG5JCCCf,Chahare PHCU,4.2895922,33.1444726,phcu,PHCU,1
East Eq,SS02,Ikotos,SS0202,Lomohidang South,Lomohidang South,SS020205,Chorokol Phcu,tujppw4PgVy,Chorokol PHCU,4.2235474,33.1947203,phcu,PHCU,1
East Eq,SS02,Ikotos,SS0202,Hatire,Hatire,SS020201,Gilo Phcu,g9JEnf69OxJ,Gilo PHCU,4.046413,32.833867,phcu,PHCU,1
East Eq,SS02,Ikotos,SS0202,Hatire,Hatire,SS020201,Hatire Phcc,BaOTshCMzLO,Hatire PHCC,4.0339711,32.8013489,phcc,PHCC,1
East Eq,SS02,Ikotos,SS0202,Ikotos,Ikotos,SS020202,Huma Phcu,u3mXrhd2Y1W,Huma PHCU,4.1735615,33.0160354,phcu,PHCU,1
East Eq,SS02,Ikotos,SS0202,Ikotos,Ikotos,SS020202,Ikwoto Phcc,oB2R4HNEPXE,Ikwoto PHCC,4.0796993,33.0985731,phcc,PHCC,1
East Eq,SS02,Ikotos,SS0202,Hatire,Hatire,SS020201,Imila Phcu,b7PJjOtc5TZ,Imila PHCU,4.1456295,32.667299,phcu,PHCU,1
East Eq,SS02,Ikotos,SS0202,Imotong,Imotong,SS020203,Imotong Phcc,IM399bqfx1t,Imotong PHCC,4.1710059,32.8417416,phcc,PHCC,1
East Eq,SS02,Ikotos,SS0202,Lomohidang North,Lomohidang North,SS020204,Lobira Phcu,uJ4l1sq4zuO,Lobira PHCU,4.3963485,33.0607217,phcu,PHCU,1
East Eq,SS02,Ikotos,SS0202,Imotong,Imotong,SS020203,Lobwaye Phcu,Bg0QRSe2YRw,Lobwaye PHCU,4.0548503,32.9738076,phcu,PHCU,1
East Eq,SS02,Ikotos,SS0202,Lomohidang South,Lomohidang South,SS020205,Lodurumo Phcu,nR7pxRpvLAh,Lodurumo PHCU,4.2370236,33.1727894,phcu,PHCU,1
East Eq,SS02,Ikotos,SS0202,Lomohidang South,Lomohidang South,SS020205,Lodwara Phcu,pcCmjhp7LB1,Lodwara PHCU,4.1942167,33.2061092,phcu,PHCU,1
East Eq,SS02,Ikotos,SS0202,Imotong,Imotong,SS020203,Lofulung Phcu,zQV8buvNhr5,Lofulung PHCU,4.1210959,32.8897233,phcu,PHCU,1
East Eq,SS02,Ikotos,SS0202,Losite,Losite,SS020206,Lofus Phcu,Dt17DuPliyN,Lofus PHCU,3.8034667,33.4347364,phcu,PHCU,1
East Eq,SS02,Ikotos,SS0202,Imotong,Imotong,SS020203,Logire Hutuk-Hinyang Phcu,YTXKZXTWogV,Logire Hutuk-hinyang PHCU,4.2462824,32.7849964,phcu,PHCU,1
East Eq,SS02,Ikotos,SS0202,Imotong,Imotong,SS020203,Lomwoo Phcu,oElIJgkgCK1,Lomwoo PHCU,4.086266,32.9366591,phcu,PHCU,1
East Eq,SS02,Ikotos,SS0202,Ikotos,Ikotos,SS020202,Lorima Phcu,XtdDWpOpSVm,Lorima PHCU,4.064729999999999,33.157,phcu,PHCU,1
East Eq,SS02,Ikotos,SS0202,Losite,Losite,SS020206,Lotome Phcu,IcEJWC575L4,Lotome PHCU,3.97491,33.44999,phcu,PHCU,1
East Eq,SS02,Ikotos,SS0202,Lomohidang North,Lomohidang North,SS020204,Mangalla Phcu,RRY3w9Hnf3G,Mangalla PHCU,4.2628343,33.1865344,phcu,PHCU,1
East Eq,SS02,Ikotos,SS0202,Ikotos,Ikotos,SS020202,Momoria Phcu,VagFhUyns80,Momoria PHCU,4.114408,33.0794879,phcu,PHCU,1
East Eq,SS02,Ikotos,SS0202,Losite,Losite,SS020206,Nakoringole Phcu,yfehYw4qBlT,Nakoringole PHCU,3.86298,33.47628,phcu,PHCU,1
East Eq,SS02,Ikotos,SS0202,Imotong,Imotong,SS020203,Ngaluma Phcu,weACGEMugGT,Ngaluma PHCU,3.9798764,33.066936,phcu,PHCU,1
East Eq,SS02,Ikotos,SS0202,Lomohidang South,Lomohidang South,SS020205,Okorohore Phcu,mK81VJYa4fu,Okorohore PHCU,4.1571799999999985,33.16964,phcu,PHCU,1
East Eq,SS02,Ikotos,SS0202,Lomohidang North,Lomohidang North,SS020204,St Theresa Isohe Mission Hospital,u5ZuL45eQdM,St Theresa Isohe Mission HOSPITAL,4.2403316,33.0754574,hospital,HOSPITAL,1
East Eq,SS02,Ikotos,SS0202,Ikotos,Ikotos,SS020202,Tseretenya Phcu,Sp21H8FAGzu,Tseretenya PHCU,3.8316815,33.2199716,phcu,PHCU,1
Cent Eq,SS01,Juba,SS0101,Juba Town,Juba Town,SS010105,African Inland Church Phcc,QHuGj6iMlPw,African Inland Church PHCC,4.8472478,31.5988488,phcc,PHCC,1
Cent Eq,SS01,Juba,SS0101,Lokiliri,Lokiliri,SS010108,Aru Junction Phcu,YIMRxUcJyyL,Aru Junction PHCU,4.3635399999999995,31.9846,phcu,PHCU,1
Cent Eq,SS01,Juba,SS0101,Bungu,Bungu,SS010101,Belle Boma Phcu,NA,NA,4.6497228,31.3881437,phcu,PHCU,1
Cent Eq,SS01,Juba,SS0101,Bungu,Bungu,SS010101,Bungu Phcu,pTZPmR7bl64,Bungu PHCU,4.664399999999999,31.396121,phcu,PHCU,1
Cent Eq,SS01,Juba,SS0101,Juba Town,Juba Town,SS010105,El-Sabah Children Hospital,DHKCr3lbyu7,El-Sabah Children HOSPITAL,4.844289,31.606819,hospital,HOSPITAL,1
Cent Eq,SS01,Juba,SS0101,Munuki,Munuki,SS010111,Festo Maternity Hospital,N3xxlZQggwE,Festo Maternity HOSPITAL,4.8560329,31.5766709,phcc,PHCC,1
Cent Eq,SS01,Juba,SS0101,Juba Town,Juba Town,SS010105,Friendship Medical Hospital,ySvHGBm99nV,Friendship Medical HOSPITAL,4.861953,31.6003913,hospital,HOSPITAL,1
Cent Eq,SS01,Juba,SS0101,Juba Town,Juba Town,SS010105,Ghabat Phcc,edVfSmcbKO4,Ghabat PHCC,4.8578521,31.609402,phcc,PHCC,0
Cent Eq,SS01,Juba,SS0101,Rokon,Rokon,SS010114,Gimora Phcu,QGk0IUc3kKN,Gimora PHCU,5.16604,31.14176,phcu,PHCU,1
Cent Eq,SS01,Juba,SS0101,Gondokoro,Gondokoro,SS010104,Gondokoro Phcu,UF1nFusaKLc,Gondokoro PHCU,4.908,31.662795,phcu,PHCU,1
Cent Eq,SS01,Juba,SS0101,Rejaf,Rejaf,SS010113,Gorom Phcc,l0pd2pMyH3F,Gorom PHCC,4.7567035,31.443664,phcc,PHCC,1
Cent Eq,SS01,Juba,SS0101,Munuki,Munuki,SS010111,Gudele Block 4 Phcu,CC1Kuf3z0AL,Gudele Block 4 PHCU,4.86326,31.56765,phcu,PHCU,1
Cent Eq,SS01,Juba,SS0101,Munuki,Munuki,SS010111,Gudele Surgical Home Private Hospital,GBUd1MscKTr,Gudele Surgical Home Private HOSPITAL,4.86786,31.5516994,hospital,HOSPITAL,1
Cent Eq,SS01,Juba,SS0101,Rejaf,Rejaf,SS010113,Gumbo Phcc,IUVO2rS8Fx3,Gumbo PHCC,4.814899999999999,31.62267,phcc,PHCC,1
Cent Eq,SS01,Juba,SS0101,Northern Bari,Northern Bari,SS010112,Gurei Phcc,mvKR8SXA6mN,Gurei PHCC,4.86667,31.51851,phcc,PHCC,1
Cent Eq,SS01,Juba,SS0101,Munuki,Munuki,SS010111,Hai Jebel Phcu,JV2amC6D9tn,Hai Jebel PHCU,4.848152,31.58016,phcc,PHCC,1
Cent Eq,SS01,Juba,SS0101,Lirya,Lirya,SS010107,Ilyangiri Phcu,RL57oZfkGbv,Ilyangiri PHCU,4.7705,32.03556,phcu,PHCU,1
Cent Eq,SS01,Juba,SS0101,Rejaf,Rejaf,SS010113,Imc Un House Clinic 1,TEMP048ljdlwjodiu,IMC UN House Clinic 1,4.8194061,31.5377044,phcu,PHCU,1
Cent Eq,SS01,Juba,SS0101,Juba Town,Juba Town,SS010105,Juba Central Prison Phcc,ftdr3NKO14K,Juba Central Prison PHCC,4.848549,31.6131159,phcc,PHCC,1
Cent Eq,SS01,Juba,SS0101,Munuki,Munuki,SS010111,Juba Military Hospital,hYL3DOY8hXS,Juba Military HOSPITAL,4.8315337,31.585079,hospital,HOSPITAL,1
Cent Eq,SS01,Juba,SS0101,Juba Town,Juba Town,SS010105,Juba Police Phcc,Ahbt0gUTOMu,Juba Police PHCC,4.848848,31.5918589,phcc,PHCC,1
Cent Eq,SS01,Juba,SS0101,Juba Town,Juba Town,SS010105,Juba Teaching Hospital,OV9zi20DDXP,Juba Teaching HOSPITAL,4.85074,31.60914,hospital,HOSPITAL,1
Cent Eq,SS01,Juba,SS0101,Kator,Kator,SS010106,Kator Phcc,tlZC0riVvzo,Kator PHCC,4.83108,31.59662,phcc,PHCC,1
Cent Eq,SS01,Juba,SS0101,Rejaf,Rejaf,SS010113,Khor Romula/Jenduru Phcu,g6TAjDzItzr,Khor Romula/Jenduru PHCU,4.793725,31.591965,phcu,PHCU,1
Cent Eq,SS01,Juba,SS0101,Rejaf,Rejaf,SS010113,Khorwalliang Phcc,kNVZNAwQEab,Khorwalliang PHCC,4.8165694,31.5807338,phcc,PHCC,1
Cent Eq,SS01,Juba,SS0101,Lokiliri,Lokiliri,SS010108,Kubi Phcu,bBF6av2MDIn,Kubi PHCU,4.39024,31.92267,phcu,PHCU,1
Cent Eq,SS01,Juba,SS0101,Dolo,Dolo,SS010102,Kuda Phcc,JZ7b9o5QLlr,Kuda PHCC,4.85112,31.58531,phcc,PHCC,1
Cent Eq,SS01,Juba,SS0101,Northern Bari,Northern Bari,SS010112,Kworijik Phcu,mkKBH7g4Hks,Kworijik PHCU,4.8514099999999996,31.5855,phcu,PHCU,1
Cent Eq,SS01,Juba,SS0101,Lirya,Lirya,SS010107,Lirya Phcc,DOgXGTDa7d4,Lirya PHCC,4.38563,32.04642,phcc,PHCC,1
Cent Eq,SS01,Juba,SS0101,Lobonok,Lobonok,SS010109,Lobonok Phcc,mCpjOQGtUTO,Lobonok PHCC,4.17706,31.37249,phcc,PHCC,1
Cent Eq,SS01,Juba,SS0101,Lokiliri,Lokiliri,SS010108,Lokiliri Phcc,zqcxljcTibn,Lokiliri PHCC,4.5736300000000005,31.93691,phcc,PHCC,1
Cent Eq,SS01,Juba,SS0101,Kator,Kator,SS010106,Lologo Phcc,yQGv7u2PPDd,Lologo PHCC,4.81729,31.59564,phcc,PHCC,1
Cent Eq,SS01,Juba,SS0101,Lokiliri,Lokiliri,SS010108,Lomega Phcu,j2DIx3i8VFg,Lomega PHCU,4.5529219,31.9736735,phcu,PHCU,0
Cent Eq,SS01,Juba,SS0101,Northern Bari,Northern Bari,SS010112,Luri Rokwe Phcu,o7HqgAlmodH,Luri rokwe PHCU,4.89822,31.59559,phcu,PHCU,1
Cent Eq,SS01,Juba,SS0101,Northern Bari,Northern Bari,SS010112,Luri-Somba Phcu,wLDazuCfBux,Luri-Somba PHCU,4.88728,31.40317,phcu,PHCU,1
Cent Eq,SS01,Juba,SS0101,Munuki,Munuki,SS010111,Lutheran Phcc,dKYfU3t2Dl4,Lutheran PHCC,4.8882493,31.5636314,phcc,PHCC,1
Cent Eq,SS01,Juba,SS0101,Juba Town,Juba Town,SS010105,Mahad Phcu,lWFMWMnpo3y,Mahad PHCU,4.8222499999999995,31.59663,phcu,PHCU,1
Cent Eq,SS01,Juba,SS0101,Kator,Kator,SS010106,Malakia Phcc,k10XhHM14iG,Malakia PHCC,4.83763,31.60361,phcc,PHCC,1
Cent Eq,SS01,Juba,SS0101,Mangala North,Mangala North,SS010117,Mangalla Phcc,fnBDtQbzVIm,Mangalla PHCC,5.1965699999999995,31.76872,phcc,PHCC,1
Cent Eq,SS01,Juba,SS0101,Northern Bari,Northern Bari,SS010112,Mangateen 2 Clinic,TEMPag34kh3k,Mangateen 2 Clinic,4.8874378,31.5794754,phcc,PHCC,1
Cent Eq,SS01,Juba,SS0101,Northern Bari,Northern Bari,SS010112,Mangaten Phcu,W2Oarls7Boh,Mangaten PHCU,4.8874235,31.5696197,phcu,PHCU,1
Cent Eq,SS01,Juba,SS0101,Munuki,Munuki,SS010111,Medicare Hospital,OXO0nbqF97s,Medicare HOSPITAL,4.8655107,31.554614,phcc,PHCC,1
Cent Eq,SS01,Juba,SS0101,Rokon,Rokon,SS010114,Mirikio Phcc,LLVIWTlO1k9,Mirikio PHCC,4.84546,31.58017,phcu,PHCU,1
Cent Eq,SS01,Juba,SS0101,Mangala South,Mangala South,SS010110,Mogiri/Jobur Phcc,Tem2pOTBNb1,Mogiri/Jobur PHCC,4.88839,31.85532,phcu,PHCU,1
Cent Eq,SS01,Juba,SS0101,Gondokoro,Gondokoro,SS010104,Monoji Phcu,sBMmElwDAJo,Monoji PHCU,4.8750135,31.6374726,phcu,PHCU,1
Cent Eq,SS01,Juba,SS0101,Munuki,Munuki,SS010111,Munuki Phcc,v23VAVHSoHJ,Munuki PHCC,4.863479999999999,31.57933,phcc,PHCC,1
Cent Eq,SS01,Juba,SS0101,Lokiliri,Lokiliri,SS010108,Nesitu Phcu,tXkVCejzUVz,Nesitu PHCU,4.69103,31.70485,phcu,PHCU,1
Cent Eq,SS01,Juba,SS0101,Lirya,Lirya,SS010107,Ngangalla Phcu,AfJsSuUf82X,Ngangalla PHCU,4.706460000000001,31.91963,phcu,PHCU,1
Cent Eq,SS01,Juba,SS0101,Munuki,Munuki,SS010111,Nyakuron Phcc,pUykfjdr0Ac,Nyakuron PHCC,4.84602,31.57908,phcc,PHCC,1
Cent Eq,SS01,Juba,SS0101,Lokiliri,Lokiliri,SS010108,Nyerjebi Phcu,xAipUefLQZa,Nyerjebi PHCU,4.53948,31.82554,phcu,PHCU,1
Cent Eq,SS01,Juba,SS0101,Northern Bari,Northern Bari,SS010112,Nyuwa Phcu,aOMj25ylBmD,Nyuwa PHCU,5.025874999999999,31.651052,phcu,PHCU,1
Cent Eq,SS01,Juba,SS0101,Lobonok,Lobonok,SS010109,Pager Phcc,DKOSoUYozuy,Pager PHCC,4.20197,31.63442,phcu,PHCU,1
Cent Eq,SS01,Juba,SS0101,Northern Bari,Northern Bari,SS010112,Peiti Phcc,S4IJ0GmbW9R,Peiti PHCC,5.057312,31.66966,phcu,PHCU,1
Cent Eq,SS01,Juba,SS0101,Rokon,Rokon,SS010114,Pirisa Phcu,h2U74v0aAqC,Pirisa PHCU,5.1768,31.03338,phcu,PHCU,1
Cent Eq,SS01,Juba,SS0101,Rejaf,Rejaf,SS010113,Rajaf East Phcc,OztCKjhtpbS,Rajaf East PHCC,4.698509999999999,31.29396,phcc,PHCC,1
Cent Eq,SS01,Juba,SS0101,Rejaf,Rejaf,SS010113,Rejaf West Phcc,hoh8MCPbiQt,Rejaf West PHCC,4.7287565,31.5920183,phcc,PHCC,1
Cent Eq,SS01,Juba,SS0101,Rokon,Rokon,SS010114,Rokon Phcc,XqHcke830dw,Rokon PHCC,4.8588208,31.5865994,phcc,PHCC,1
Cent Eq,SS01,Juba,SS0101,Kator,Kator,SS010106,Sacred Heart Phcc,c6Uxw0VOyz2,Sacred Heart PHCC,4.8278606,31.6017546,phcc,PHCC,1
Cent Eq,SS01,Juba,SS0101,Rokon,Rokon,SS010114,Sereng Phcu,DE55dId49oW,Sereng PHCU,4.8511,31.58533,phcu,PHCU,1
Cent Eq,SS01,Juba,SS0101,Dolo,Dolo,SS010102,Sirimon Phcu,v3JKPG8trYN,Sirimon PHCU,5.0158499999999995,31.113195,phcu,PHCU,1
Cent Eq,SS01,Juba,SS0101,Munuki,Munuki,SS010111,St.Kizito Phcc,l960mY5guRT,St.Kizito PHCC,4.860079999999999,31.57175,phcc,PHCC,1
Cent Eq,SS01,Juba,SS0101,Dolo,Dolo,SS010102,Sure Phcu,SZ6Extp8z27,Sure PHCU,4.84409,31.5849,phcu,PHCU,1
Cent Eq,SS01,Juba,SS0101,Rokon,Rokon,SS010114,Toko-Ko-Tulu Phcu,auEikxAUt6W,Toko-Ko-Tulu PHCU,4.948493000000001,30.914018,phcu,PHCU,1
Cent Eq,SS01,Juba,SS0101,Juba Town,Juba Town,SS010105,Usratuna Phcc,lY6ijQFgr5X,Usratuna PHCC,4.8468206,31.6050231,phcc,PHCC,1
Cent Eq,SS01,Juba,SS0101,Northern Bari,Northern Bari,SS010112,Walawalang Phcu,QfimAFWsaAp,Walawalang PHCU,4.882179999999999,31.62256,phcu,PHCU,1
Cent Eq,SS01,Juba,SS0101,Rejaf,Rejaf,SS010113,Way Station Phcu,IWzYBfjK9z6,Way Station PHCU,4.815574,31.5600894,phcu,PHCU,1
Cent Eq,SS01,Juba,SS0101,Munuki,Munuki,SS010111,Way Station Phcu,TEMPosaudoudw,Way Station PHCU,4.815574,31.5600894,phcu,PHCU,1
Cent Eq,SS01,Juba,SS0101,Wonduruba,Wonduruba,SS010116,Wonduruba Phcc,Kodq1BjHROl,Wonduruba PHCC,4.54572,33.0033,phcc,PHCC,1
West Bahr,SS09,Jur River,SS0901,Udici,Udici,SS090106,Abou Phcu,MTyMTPlEnhW,Abou PHCU,7.9956335,27.7998999,phcu,PHCU,1
West Bahr,SS09,Jur River,SS0901,Marial Bai,Marial Bai,SS090104,Achong Chong Phcc,I2SO4YQzs7c,Achong Chong PHCC,7.929340000000001,28.17447,phcc,PHCC,1
West Bahr,SS09,Jur River,SS0901,Rocrocdong,Rocrocdong,SS090105,Achot Phcu,UvAVXHPdkKY,Achot PHCU,7.708260000000001,28.15446,phcu,PHCU,1
West Bahr,SS09,Jur River,SS0901,Wau Bai,Wau Bai,SS090107,Adet Phcu,unXoRwN97Yq,Adet PHCU,8.1052848,28.1690493,phcu,PHCU,1
West Bahr,SS09,Jur River,SS0901,Kangi,Kangi,SS090101,Ajugo Phcu,UyTWIPClYXW,Ajugo PHCU,8.0738562,27.6220844,phcu,PHCU,1
West Bahr,SS09,Jur River,SS0901,Wau Bai,Wau Bai,SS090107,Akonbet Phcu,xoWNJVKsWFy,Akonbet PHCU,8.0009984,27.9566878,phcu,PHCU,1
West Bahr,SS09,Jur River,SS0901,Rocrocdong,Rocrocdong,SS090105,Akrok Phcu,uhsYCb6DeVS,Akrok PHCU,7.871889,28.1193142,phcu,PHCU,1
West Bahr,SS09,Jur River,SS0901,Marial Bai,Marial Bai,SS090104,Alelchok Phcu,iCloO1evpPi,Alelchok PHCU,7.7781349,27.9780823,phcu,PHCU,1
West Bahr,SS09,Jur River,SS0901,Kangi,Kangi,SS090101,Alelthony Phcu,auSGD5IEa82,Alelthony PHCU,8.2785883,27.8592619,phcu,PHCU,1
West Bahr,SS09,Jur River,SS0901,Udici,Udici,SS090106,Apoch Phcu,dHIsSZwQiCO,Apoch PHCU,7.999881,27.7028727,phcu,PHCU,0
West Bahr,SS09,Jur River,SS0901,Udici,Udici,SS090106,Atido Phcu,HrUpdRjeAiD,Atido PHCU,7.8521724,27.8996527,phcu,PHCU,1
West Bahr,SS09,Jur River,SS0901,Wau Bai,Wau Bai,SS090107,Awany Phcu,j64kQP9U9yb,Awany PHCU,8.0454063,28.1237911,phcu,PHCU,1
West Bahr,SS09,Jur River,SS0901,Kangi,Kangi,SS090101,Ayom Phcu,A6r6ERX73Ey,Ayom PHCU,8.200795,27.8389222,phcu,PHCU,0
West Bahr,SS09,Jur River,SS0901,Udici,Udici,SS090106,Barakol Phcu,uDn8cB7MByx,Barakol PHCU,7.8185416,27.7569551,phcu,PHCU,1
West Bahr,SS09,Jur River,SS0901,Kangi,Kangi,SS090101,Bartio Phcu,R0i9rz7KSoq,Bartio PHCU,8.0223392,27.5514391,phcu,PHCU,1
West Bahr,SS09,Jur River,SS0901,Udici,Udici,SS090106,Barurud Phcu,QGhgMeHCum6,Barurud PHCU,7.9570844,27.5261341,phcu,PHCU,1
West Bahr,SS09,Jur River,SS0901,Udici,Udici,SS090106,Baryar Phcu,YbgURJxFscZ,Baryar PHCU,7.7563785,27.965172,phcu,PHCU,1
West Bahr,SS09,Jur River,SS0901,Kangi,Kangi,SS090101,Berber Phcu,Xf7jixeWcnk,Berber PHCU,8.3324666,27.8834249,phcu,PHCU,1
West Bahr,SS09,Jur River,SS0901,Kuajiena,Kuajiena,SS090103,Chono Phcu,M25nFtq3iDr,Chono PHCU,7.6479512,28.1782654,phcu,PHCU,1
West Bahr,SS09,Jur River,SS0901,Kangi,Kangi,SS090101,Dhekou Phcu,v9RM7OoRf5Q,Dhekou PHCU,8.2663113,27.6253499,phcu,PHCU,1
West Bahr,SS09,Jur River,SS0901,Rocrocdong,Rocrocdong,SS090105,East Bank Phcc,YrUWKzUdnMn,East Bank PHCC,7.70752,28.02515,phcc,PHCC,1
West Bahr,SS09,Jur River,SS0901,Udici,Udici,SS090106,Gette Phcu,QrsDZTigsmf,Gette PHCU,7.9461484,27.8466879,phcu,PHCU,1
West Bahr,SS09,Jur River,SS0901,Kangi,Kangi,SS090101,Gumel Phcu,Zh83kETjKsp,Gumel PHCU,8.3552517,27.8129728,phcu,PHCU,1
West Bahr,SS09,Jur River,SS0901,Kangi,Kangi,SS090101,Kangi Phcc,MQ8o8zEwqJi,Kangi PHCC,8.1430231,27.662524,phcc,PHCC,1
West Bahr,SS09,Jur River,SS0901,Udici,Udici,SS090106,Kanyango Phcu,quXY8r42uAK,Kanyango PHCU,7.9535594,27.6734032,phcu,PHCU,1
West Bahr,SS09,Jur River,SS0901,Rocrocdong,Rocrocdong,SS090105,Khor Jamus Phcu,jgBFLkmV3RM,Khor Jamus PHCU,7.8221185,28.1993122,phcu,PHCU,1
West Bahr,SS09,Jur River,SS0901,Kuajiena,Kuajiena,SS090103,Kuajena Phcc,MLNC5QWCwYG,Kuajena PHCC,7.5106099,28.266978,phcc,PHCC,1
West Bahr,SS09,Jur River,SS0901,Marial Bai,Marial Bai,SS090104,Kuom Phcu,LsegzgTcgTv,Kuom PHCU,7.7897809,28.02639,phcu,PHCU,1
West Bahr,SS09,Jur River,SS0901,Wau Bai,Wau Bai,SS090107,Mabior Abiem Phcu,SipHTvBZTyH,Mabior Abiem PHCU,7.9991319,28.0447658,phcu,PHCU,1
West Bahr,SS09,Jur River,SS0901,Marial Bai,Marial Bai,SS090104,Mabor Abun Phcu,g2b2DcQJGRy,Mabor Abun PHCU,8.0387812,28.1633844,phcu,PHCU,1
West Bahr,SS09,Jur River,SS0901,Marial Bai,Marial Bai,SS090104,Maluil Phcu,rp9Dlm11YYM,Maluil PHCU,7.8238214,27.9668717,phcu,PHCU,1
West Bahr,SS09,Jur River,SS0901,Marial Bai,Marial Bai,SS090104,Manyang Phcu,TMqTJ5hC52A,Manyang PHCU,8.0446616,28.1892499,phcu,PHCU,1
West Bahr,SS09,Jur River,SS0901,Kuajiena,Kuajiena,SS090103,Mapel Phcc,SIXPkACzFsl,Mapel PHCC,7.296,28.43921,phcc,PHCC,1
West Bahr,SS09,Jur River,SS0901,Kuajiena,Kuajiena,SS090103,Maranya Phcu,QelBfCuo9ej,Maranya PHCU,7.381670000000001,28.40917,phcu,PHCU,1
West Bahr,SS09,Jur River,SS0901,Marial Bai,Marial Bai,SS090104,Marial Ajieth Phcu,yYUkR5rYUE0,Marial Ajieth PHCU,7.7721846,27.9970701,phcu,PHCU,1
West Bahr,SS09,Jur River,SS0901,Marial Bai,Marial Bai,SS090104,Marial Bai Phcc,iFnWicpMxZI,Marial Bai PHCC,7.89063,27.97841,phcc,PHCC,1
West Bahr,SS09,Jur River,SS0901,Marial Bai,Marial Bai,SS090104,Mary Help Hospital,EgMUfMDm7Yg,Mary Help HOSPITAL,7.761143,27.9889891,hospital,HOSPITAL,1
West Bahr,SS09,Jur River,SS0901,Kuajiena,Kuajiena,SS090103,Mbili Phcu,LJMiptL2keU,Mbili PHCU,7.51899,28.19623,phcu,PHCU,1
West Bahr,SS09,Jur River,SS0901,Kuajiena,Kuajiena,SS090103,Medil Phcu,FooAdFx67lJ,Medil PHCU,7.3082956,28.263423,phcu,PHCU,1
West Bahr,SS09,Jur River,SS0901,Rocrocdong,Rocrocdong,SS090105,Mmm Healing Phcc,QGKNrAYK4d0,MMM Healing PHCC,7.6976696,28.0282829,phcc,PHCC,1
West Bahr,SS09,Jur River,SS0901,Wau Bai,Wau Bai,SS090107,Nyinakok Phcu,Krixhp36YCK,Nyinakok PHCU,7.92325,28.03379,phcu,PHCU,1
West Bahr,SS09,Jur River,SS0901,Rocrocdong,Rocrocdong,SS090105,Rocroc Dong Phcu,brILqFGZoDP,RocRoc Dong PHCU,7.782179999999999,28.11294,phcu,PHCU,1
West Bahr,SS09,Jur River,SS0901,Wau Bai,Wau Bai,SS090107,Tharkueng Phcc,J1de0sxsq6z,Tharkueng PHCC,8.011159999999999,27.99872,phcc,PHCC,1
West Bahr,SS09,Jur River,SS0901,Wau Bai,Wau Bai,SS090107,Thillic Phcu,x0QkuRDTwTz,Thillic PHCU,8.0824608,28.1418864,phcu,PHCU,0
West Bahr,SS09,Jur River,SS0901,Udici,Udici,SS090106,Udici Phcc,UTPeD2nj0PI,Udici PHCC,8.069780000000002,27.72219,phcc,PHCC,1
West Bahr,SS09,Jur River,SS0901,Rocrocdong,Rocrocdong,SS090105,Wadalel Phcu,CcAoDWfpkB1,Wadalel PHCU,7.4916136,28.0577145,phcu,PHCU,0
West Bahr,SS09,Jur River,SS0901,Marial Bai,Marial Bai,SS090104,Warachok Phcu,TEMP3408fnfjsjf89,Warachok PHCU,7.9454125,27.915196,phcu,PHCU,1
West Bahr,SS09,Jur River,SS0901,Kangi,Kangi,SS090101,Warrieth Phcu,cq3LZsyloaW,Warrieth PHCU,8.313440000000002,27.73386,phcu,PHCU,1
Cent Eq,SS01,Kajo-Keji,SS0102,Kangapo Ii,Kangapo Ii,SS010202,Abaya Phcu,TEMP23408sjdfj,Abaya PHCU,3.6467867,31.6165576,phcu,PHCU,1
Cent Eq,SS01,Kajo-Keji,SS0102,Liwolo,Liwolo,SS010204,Ajio Phcu,tfTLCc5vfHm,Ajio PHCU,3.8384773,31.1953635,phcu,PHCU,0
Cent Eq,SS01,Kajo-Keji,SS0102,Kangapo Ii,Kangapo Ii,SS010202,Bori Phcc,mvgmcnhNoCH,Bori PHCC,3.7740053,31.510205,phcc,PHCC,1
Cent Eq,SS01,Kajo-Keji,SS0102,Kangapo Ii,Kangapo Ii,SS010202,Jalimo Phcc,KT9nfdklJ6p,Jalimo PHCC,3.759675,31.5990489,phcc,PHCC,1
Cent Eq,SS01,Kajo-Keji,SS0102,Kangapo Ii,Kangapo Ii,SS010202,Kajo Keji Civil Hospital,IzwzREKKULA,Kajo Keji Civil Hospital,3.8536143,31.6565057,hospital,HOSPITAL,1
Cent Eq,SS01,Kajo-Keji,SS0102,Kangapo I,Kangapo I,SS010201,Kangai Phcc,lHz71s3NEWg,Kangai PHCC,3.7689018,31.6569244,phcc,PHCC,1
Cent Eq,SS01,Kajo-Keji,SS0102,Nyepo,Nyepo,SS010205,Kansuk Phcc,VAgxQpwNqVN,Kansuk PHCC,4.0109556,31.5353132,phcc,PHCC,1
Cent Eq,SS01,Kajo-Keji,SS0102,Liwolo,Liwolo,SS010204,Kerwa Phcu,M5X85Hdpxoy,Kerwa PHCU,3.8014399,31.3068508,phcc,PHCC,0
Cent Eq,SS01,Kajo-Keji,SS0102,Kangapo I,Kangapo I,SS010201,Kinyiba Phcu,iFSWgycp0VW,Kinyiba PHCU,3.8216601,31.5813263,phcu,PHCU,1
Cent Eq,SS01,Kajo-Keji,SS0102,Kangapo I,Kangapo I,SS010201,Kiri Phcu,BdmSplm1aer,Kiri PHCU,3.7728553,31.6368063,phcu,PHCU,1
Cent Eq,SS01,Kajo-Keji,SS0102,Kangapo I,Kangapo I,SS010201,Leikor Phcu,ra7RjAyUjO8,Leikor PHCU,3.8078491,31.6658959,phcu,PHCU,1
Cent Eq,SS01,Kajo-Keji,SS0102,Kangapo I,Kangapo I,SS010201,Lijo Healing Kadi Phcc,NA,NA,3.7801013,31.6673952,phcc,PHCC,1
Cent Eq,SS01,Kajo-Keji,SS0102,Kangapo I,Kangapo I,SS010201,Limi Phcu,qzz91rAFKFx,Limi PHCU,3.8028143,31.7151213,phcu,PHCU,1
Cent Eq,SS01,Kajo-Keji,SS0102,Lire,Lire,SS010203,Lire Phcc,B1ZxnxQ13Xu,Lire PHCC,3.8965935,31.6202382,phcc,PHCC,1
Cent Eq,SS01,Kajo-Keji,SS0102,Kangapo I,Kangapo I,SS010201,Litoba Phcu,Ed2klEVwkL9,Litoba PHCU,3.738447,31.683778,phcu,PHCU,1
Cent Eq,SS01,Kajo-Keji,SS0102,Kangapo Ii,Kangapo Ii,SS010202,Logu Phcu,UA4j4MmGS1H,Logu PHCU,3.8356038,31.6188686,phcu,PHCU,0
Cent Eq,SS01,Kajo-Keji,SS0102,Kangapo Ii,Kangapo Ii,SS010202,Lomin Phcc,H1b23bWyWpd,Lomin PHCC,3.8247913,31.6593606,phcu,PHCU,1
Cent Eq,SS01,Kajo-Keji,SS0102,Lire,Lire,SS010203,Longira Phcu,CZu9FGkOc3z,Longira PHCU,3.8784736,31.6016716,phcu,PHCU,1
Cent Eq,SS01,Kajo-Keji,SS0102,Lire,Lire,SS010203,Mere Phcu,U8O9tmIaK8S,Mere PHCU,3.88952,31.67249,phcu,PHCU,1
Cent Eq,SS01,Kajo-Keji,SS0102,Lire,Lire,SS010203,Merewa Phcc,TEMPsou308w032j,Merewa PHCC,3.9070548,31.6274159,phcu,PHCU,0
Cent Eq,SS01,Kajo-Keji,SS0102,Lire,Lire,SS010203,Mogiri Phcu,pcHOfgt8GoW,Mogiri PHCU,3.9506846,31.5954305,phcu,PHCU,0
Cent Eq,SS01,Kajo-Keji,SS0102,Lire,Lire,SS010203,Mondikolok Phcu,ZTMoJH19056,Mondikolok PHCU,3.9143225,31.6267466,phcc,PHCC,0
Cent Eq,SS01,Kajo-Keji,SS0102,Lire,Lire,SS010203,Romogi Phcu,aMXKM9VxfWq,Romogi PHCU,3.9083621,31.6497019,phcu,PHCU,1
Cent Eq,SS01,Kajo-Keji,SS0102,Kangapo I,Kangapo I,SS010201,Saregoro Phcu,Z6g2W3RcVzN,Saregoro PHCU,3.8442145,31.6790093,phcu,PHCU,0
Cent Eq,SS01,Kajo-Keji,SS0102,Kangapo I,Kangapo I,SS010201,Sera Jale Phcu,nKl639BKE9G,Sera Jale PHCU,3.7344292,31.6347148,phcu,PHCU,1
Cent Eq,SS01,Kajo-Keji,SS0102,Liwolo,Liwolo,SS010204,Sokare Phcu,shq5zqnFyBy,Sokare PHCU,3.7949685,31.4298857,phcc,PHCC,1
Cent Eq,SS01,Kajo-Keji,SS0102,Liwolo,Liwolo,SS010204,Tirye Phcu,lUUviVD7rjz,Tirye PHCU,3.7709627,31.3142738,phcu,PHCU,0
East Eq,SS02,Kapoeta East,SS0203,Kauto,Kauto,SS020303,Good Shephard Phcc,D6Uwq2zbQrs,GOOD SHEPHARD PHCC,5.498670000000001,34.77216,phcu,PHCU,1
East Eq,SS02,Kapoeta East,SS0203,Narus,Narus,SS020306,Kaludo Phcu,Q97k5pNA0NU,Kaludo PHCU,4.6822,34.1065,phcu,PHCU,1
East Eq,SS02,Kapoeta East,SS0203,Katodori,Katodori,SS020302,Kalupe Phcu,xa0YBjwag2g,Kalupe PHCU,4.776300000000001,33.80437,phcu,PHCU,1
East Eq,SS02,Kapoeta East,SS0203,Kauto,Kauto,SS020303,Kuron Phcc,eTgFrzpPEyx,Kuron PHCC,5.704879999999999,34.56504,phcc,PHCC,1
East Eq,SS02,Kapoeta East,SS0203,Narus,Narus,SS020306,Loolim Phcu,bNyekr4BEHr,Loolim PHCU,4.587879999999999,34.04496,phcu,PHCU,1
East Eq,SS02,Kapoeta East,SS0203,Lotimor,Lotimor,SS020304,Lotimor Phcu,i9FEURIsw87,LOTIMOR PHCU,5.310038,35.074905,phcu,PHCU,1
East Eq,SS02,Kapoeta East,SS0203,Katodori,Katodori,SS020302,Lowoyakali Phcu,J3IEGCOyxVH,Lowoyakali PHCU,4.67819,33.81587,phcu,PHCU,1
East Eq,SS02,Kapoeta East,SS0203,Mogos,Mogos,SS020305,Mogos Phcc,lfHgzyumCAG,Mogos PHCC,5.124769999999999,33.7906,phcu,PHCU,1
East Eq,SS02,Kapoeta East,SS0203,Narus,Narus,SS020306,Nadapal Phcu,L01ySzJuCvR,Nadapal PHCU,4.448731,34.184503,phcu,PHCU,1
East Eq,SS02,Kapoeta East,SS0203,Narus,Narus,SS020306,Naliel Phcu,gVwVVyOeiYW,NALIEL PHCU,4.8233,34.22006,phcu,PHCU,1
East Eq,SS02,Kapoeta East,SS0203,Kauto,Kauto,SS020303,Namorupus Phcu,oRs4ZgmqXJp,NAMORUPUS PHCU,5.47083,34.64701,phcu,PHCU,1
East Eq,SS02,Kapoeta East,SS0203,Katodori,Katodori,SS020302,Napotpot (Loburi) Phcu,tVTsvzm6dSB,NAPOTPOT (Loburi) PHCU,4.62665,33.89911,phcu,PHCU,1
East Eq,SS02,Kapoeta East,SS0203,Narus,Narus,SS020306,Narus Cdot Phcc,QjUEAAeYFew,Narus CDoT PHCC,4.504779999999999,34.17014,phcu,PHCU,1
East Eq,SS02,Kapoeta East,SS0203,Narus,Narus,SS020306,Narus Phcc,VQOmGKq1wh1,Narus PHCC,4.50338,34.16179,phcc,PHCC,1
East Eq,SS02,Kapoeta East,SS0203,Mogos,Mogos,SS020305,Nasigigriate Phcu,fiMuSPDeCKP,Nasigigriate PHCU,4.975250000000001,33.69908,phcu,PHCU,1
East Eq,SS02,Kapoeta East,SS0203,Natinga,Natinga,SS020307,New Site Wodran Phcc,izweOJT2h5i,New Site Wodran PHCC,4.25042,34.00154,phcu,PHCU,1
East Eq,SS02,Kapoeta North,SS0204,Paringa,Paringa,SS020406,Choroi Phcu,aEdwAOEOUWW,Choroi PHCU,4.8871899999999995,33.60092,phcu,PHCU,1
East Eq,SS02,Kapoeta North,SS0204,Chumakori,Chumakori,SS020401,Chumakori Phcu,toW9AZ8yj70,Chumakori PHCU,4.91333,33.55849,phcu,PHCU,1
East Eq,SS02,Kapoeta North,SS0204,Karukomuge,Karukomuge,SS020402,Kibak Phcu,MzztF94mDIt,Kibak PHCU,4.995578,33.579274,phcu,PHCU,1
East Eq,SS02,Kapoeta North,SS0204,Karukomuge,Karukomuge,SS020402,Lokoges Phcu,UQUciONr4OR,Lokoges PHCU,5.049,33.3049,phcu,PHCU,1
East Eq,SS02,Kapoeta North,SS0204,Lomeyen,Lomeyen,SS020403,Lomeyen Phcu,Bs37IJ3170C,Lomeyen PHCU,4.90765,33.45101,phcu,PHCU,1
East Eq,SS02,Kapoeta North,SS0204,Karukomuge,Karukomuge,SS020402,Lopetet Phcu,YpNL1qI5M5R,Lopetet PHCU,5.011983,33.514404999999996,phcu,PHCU,1
East Eq,SS02,Kapoeta North,SS0204,Mosingo,Mosingo,SS020404,Mossingo Phcu,KOxnStgd7mw,Mossingo PHCU,5.267481999999999,33.771244,phcu,PHCU,1
East Eq,SS02,Kapoeta North,SS0204,Karukomuge,Karukomuge,SS020402,Naakwa Phcc,fUIGMnSDxZz,Naakwa PHCC,5.067149999999999,33.55346,phcu,PHCU,1
East Eq,SS02,Kapoeta North,SS0204,Lomeyen,Lomeyen,SS020403,Naminitoit Phcu,gbmucC9MZ4r,Naminitoit PHCU,5.201201000000001,33.514152,phcu,PHCU,1
East Eq,SS02,Kapoeta North,SS0204,Mosingo,Mosingo,SS020404,Namonicheck Phcu,B3iEykjl3mh,Namonicheck PHCU,5.2795000000000005,33.39236,phcu,PHCU,1
East Eq,SS02,Kapoeta North,SS0204,Najie,Najie,SS020405,Nangoletirae Phcu,IV4ktvku6CW,Nangoletirae PHCU,4.895879999999999,33.49577,phcu,PHCU,1
East Eq,SS02,Kapoeta North,SS0204,Chumakori,Chumakori,SS020401,Nawoyamuria Phcu,fYaWkEgqwwy,Nawoyamuria PHCU,5.304529999999999,33.45908,phcu,PHCU,1
East Eq,SS02,Kapoeta North,SS0204,Paringa,Paringa,SS020406,Paringa Phcu,fE97HbakOEi,PARINGA PHCU,4.84784,33.56327,phcu,PHCU,1
East Eq,SS02,Kapoeta North,SS0204,Najie,Najie,SS020405,Riwoto Phcc,Cx4FItlS5fY,Riwoto PHCC,4.8821699999999995,33.50584,phcc,PHCC,1
East Eq,SS02,Kapoeta North,SS0204,Karukomuge,Karukomuge,SS020402,Wokobu Phcu,la7BJl8faB0,Wokobu PHCU,5.1397,33.51597,phcu,PHCU,1
East Eq,SS02,Kapoeta South,SS0205,Kapoeta Town,Kapoeta Town,SS020501,Kapoeta Civil Hospital,oV5sT7FVaVx,Kapoeta Civil Hospital,4.772390000000001,33.59156,hospital,HOSPITAL,1
East Eq,SS02,Kapoeta South,SS0205,Longeleya,Longeleya,SS020502,Longeleya Phcu,E5DmJjUiPW2,Longeleya PHCU,4.701444,33.633778,phcu,PHCU,1
East Eq,SS02,Kapoeta South,SS0205,Machi One,Machi One,SS020503,Nachilagur Phcu,kY6W0bzF36o,Nachilagur PHCU,4.7536000000000005,33.6058,phcu,PHCU,1
East Eq,SS02,Kapoeta South,SS0205,Pwata,Pwata,SS020505,Nak Nak Phcu,WtCTR1fJFVn,Nak Nak PHCU,4.753361000000001,33.662867,phcu,PHCU,1
East Eq,SS02,Kapoeta South,SS0205,Machi Two,Machi Two,SS020504,Nakware Phcu,VmQciys5ZVG,Nakware PHCU,4.774,33.500417,phcu,PHCU,1
East Eq,SS02,Kapoeta South,SS0205,Pwata,Pwata,SS020505,Napetait Phcc,ntGMMLG0CMq,Napetait PHCC,4.6258609999999996,33.656833,phcc,PHCC,1
Unity,SS06,Koch,SS0603,Boaw,Boaw,SS060301,Boaw Phcc,qWRgw28vCN8,Boaw PHCC,8.84379,29.7296,phcc,PHCC,1
Unity,SS06,Koch,SS0603,Kuachlual,Kuachlual,SS060304,Koch Phcc,SOrMJAYSAgS,Koch PHCC,8.59984,29.98989,phcc,PHCC,1
Unity,SS06,Koch,SS0603,Ngony,Ngony,SS060305,Mirmir Phcc,BNEzdDm2s7T,Mirmir PHCC,8.4646,30.10225,phcu,PHCU,1
Unity,SS06,Koch,SS0603,Jaak,Jaak,SS060303,Rier Phcu,POlD8BIeWSU,Rier PHCU,8.78296,30.10023,phcu,PHCU,1
East Eq,SS02,Lafon,SS0206,Kurumi,Kurumi,SS020604,Adeba Phcu,oBH15QR56LK,Adeba PHCU,5.00959,32.39547,phcu,PHCU,1
East Eq,SS02,Lafon,SS0206,Lohutok,Lohutok,SS020605,Aic Lohutok Phcc,SrKWFQxqCh8,AIC Lohutok PHCC,4.642398,32.85622,phcc,PHCC,1
East Eq,SS02,Lafon,SS0206,Longiro,Longiro,SS020606,Bule Phcu,nqCNcInxecf,Bule PHCU,4.901303000000001,32.618125,phcu,PHCU,1
East Eq,SS02,Lafon,SS0206,Longiro,Longiro,SS020606,Haba Phcu,UwK3acKsTh2,Haba PHCU,4.837809999999999,32.62203,phcu,PHCU,1
East Eq,SS02,Lafon,SS0206,Lohutok,Lohutok,SS020605,Ibonni Phcu,nKg4bhRJsDQ,Ibonni PHCU,4.661956999999999,32.796646,phcu,PHCU,1
East Eq,SS02,Lafon,SS0206,Longiro,Longiro,SS020606,Idali Phcu,bqzb4FGeoVN,Idali PHCU,4.70395,32.68326,phcu,PHCU,1
East Eq,SS02,Lafon,SS0206,Arihilo,Arihilo,SS020601,Imedu Phcu,Ah7N6pGZmZW,Imedu PHCU,4.913181,32.677192,phcu,PHCU,1
East Eq,SS02,Lafon,SS0206,Imehejek,Imehejek,SS020603,Imehejek Phcc,ccoacZ7JsEb,Imehejek PHCC,4.781750000000001,32.76149,hospital,HOSPITAL,1
East Eq,SS02,Lafon,SS0206,Kurumi,Kurumi,SS020604,Kujikor Phcu,ZTzho4qOLOF,Kujikor PHCU,4.956790000000001,32.42887,phcu,PHCU,1
East Eq,SS02,Lafon,SS0206,Arihilo,Arihilo,SS020601,Lacharok Phcu,WPYc8f7zTyq,Lacharok PHCU,4.866969999999999,32.70185,phcu,PHCU,1
East Eq,SS02,Lafon,SS0206,Burgilo,Burgilo,SS020602,Lafon Phcc,sx9Lt0bSKqr,Lafon PHCC,5.030390000000001,32.476115,phcc,PHCC,1
East Eq,SS02,Lafon,SS0206,Lohutok,Lohutok,SS020605,Lalanga Phcu,yItOo3Uqz5h,Lalanga PHCU,4.590909999999999,32.90335,phcu,PHCU,1
East Eq,SS02,Lafon,SS0206,Arihilo,Arihilo,SS020601,Logonowati Phcu,sRnlrEG3rIq,Logonowati PHCU,4.84137,32.69088,phcu,PHCU,1
East Eq,SS02,Lafon,SS0206,Lohutok,Lohutok,SS020605,Loming Phcu,SnkzLcgZpwf,Loming PHCU,4.52279,32.92991,phcu,PHCU,1
East Eq,SS02,Lafon,SS0206,Longiro,Longiro,SS020606,Longiro Phcu,Ckqhne6EQbK,Longiro PHCU,4.78893,32.6278,phcu,PHCU,1
East Eq,SS02,Lafon,SS0206,Pachidi,Pachidi,SS020608,Pachidi/Lwala Phcu,b5UM6UTrYDc,Pachidi/Lwala PHCU,4.80568,32.47657,phcu,PHCU,1
East Eq,SS02,Lafon,SS0206,Burgilo,Burgilo,SS020602,Taar Phcu,W2zQpYKOecc,Taar PHCU,5.102244,32.460542,phcu,PHCU,1
East Eq,SS02,Lafon,SS0206,Marguna,Marguna,SS020607,Ukwanya Phcu,dJPEMzp2QT3,Ukwanya PHCU,5.094513999999998,32.480869,phcu,PHCU,1
East Eq,SS02,Lafon,SS0206,Pachidi,Pachidi,SS020608,Upuo Phcu,d1RWBUx3SbD,Upuo PHCU,4.786060000000001,32.43223,phcu,PHCU,1
Cent Eq,SS01,Lainya,SS0103,Lainya,Lainya,SS010303,Bereka Phcu,EFvt3VR7Pd5,Bereka PHCU,4.39846,31.04184,phcu,PHCU,1
Cent Eq,SS01,Lainya,SS0103,Kupera,Kupera,SS010302,Ginyabio Phcu,i0h0USzNXoA,Ginyabio PHCU,3.9799347,30.9694419,phcu,PHCU,1
Cent Eq,SS01,Lainya,SS0103,Kupera,Kupera,SS010302,Jamara Phcc,MlWcdwDncIF,Jamara PHCC,4.04734,30.98237,phcc,PHCC,1
Cent Eq,SS01,Lainya,SS0103,Kenyi,Kenyi,SS010301,Kenyi Phcu,wwREoqUiHsj,Kenyi PHCU,4.20651,30.91298,phcu,PHCU,1
Cent Eq,SS01,Lainya,SS0103,Kupera,Kupera,SS010302,Kupera Phcu,PugKJSsYaOF,Kupera PHCU,4.133344,30.953781,phcu,PHCU,1
Cent Eq,SS01,Lainya,SS0103,Lainya,Lainya,SS010303,Lainya Phcc,hNigjIwEfra,Lainya PHCC,4.34059,31.07442,phcc,PHCC,1
Cent Eq,SS01,Lainya,SS0103,Kenyi,Kenyi,SS010301,Limbe Phcc,lmTCXjmTgcX,Limbe PHCC,4.16106,30.86092,phcc,PHCC,1
Cent Eq,SS01,Lainya,SS0103,Wuji,Wuji,SS010305,Limuro Phcu,dbWHgaOQnjq,Limuro PHCU,4.05827,31.05803,phcu,PHCU,1
Cent Eq,SS01,Lainya,SS0103,Lainya,Lainya,SS010303,Logwili Phcu,ImAhxEgkhRn,Logwili PHCU,4.37008,31.12116,phcu,PHCU,1
Cent Eq,SS01,Lainya,SS0103,Lainya,Lainya,SS010303,Loka Round Phcu,iygMRbdWOgE,Loka Round PHCU,4.27317,31.0196,phcu,PHCU,1
Cent Eq,SS01,Lainya,SS0103,Kenyi,Kenyi,SS010301,Loka West Phcu,Z3ZCbtXbB04,Loka West PHCU,4.2522257,30.9973707,phcu,PHCU,0
Cent Eq,SS01,Lainya,SS0103,Kenyi,Kenyi,SS010301,Lomilikin Phcu,PwNZCIfXOkG,Lomilikin PHCU,4.2230746,30.9583198,phcu,PHCU,0
Cent Eq,SS01,Lainya,SS0103,Lainya,Lainya,SS010303,St Luke Phcc,RsHZWsG7oM6,St Luke PHCC,4.3393069,31.069034,phcc,PHCC,1
Cent Eq,SS01,Lainya,SS0103,Wuji,Wuji,SS010305,Wuji Phcu,CL7iYl3LpsI,Wuji PHCU,3.84054,31.07676,phcc,PHCC,1
Cent Eq,SS01,Lainya,SS0103,Mukaya,Mukaya,SS010304,Yondoru Phcu,eWmgMGGpH2g,Yondoru PHCU,4.22023,30.76613,phcu,PHCU,1
Unity,SS06,Leer,SS0604,Adok,Adok,SS060402,Adok Phcc,ikP6hKzp426,Adok PHCC,8.192326,30.30251,phcc,PHCC,1
Unity,SS06,Leer,SS0604,Bou,Bou,SS060403,Bou Phcu,uT5MmWFyeow,Bou PHCU,8.3323184,30.1992271,phcu,PHCU,1
Unity,SS06,Leer,SS0604,Padeah,Padeah,SS060401,Dindin Phcu,iHZKwYatK5z,Dindin PHCU,8.3033738,30.2305808,phcu,PHCU,1
Unity,SS06,Leer,SS0604,Padeah,Padeah,SS060401,Gandor Phcu,UfU1uxTchpt,Gandor PHCU,8.3565002,30.199874,phcu,PHCU,1
Unity,SS06,Leer,SS0604,Guat,Guat,SS060404,Guat Phcu,AZWPfydUtO2,Guat PHCU,8.38339,30.1446,phcu,PHCU,1
Unity,SS06,Leer,SS0604,Adok,Adok,SS060402,Juong Phcu,IwYqd0RGXCf,Juong PHCU,8.3115255,30.1465804,phcc,PHCC,1
Unity,SS06,Leer,SS0604,Padeah,Padeah,SS060401,Lual Phcu,XvUs4aufqEl,Lual PHCU,8.240829999999999,30.07446,phcu,PHCU,1
Unity,SS06,Leer,SS0604,Padeah,Padeah,SS060401,Padeah Phcu,Ab1Dt4ej5AA,Padeah PHCU,8.405481,30.186569,phcu,PHCU,1
Unity,SS06,Leer,SS0604,Pilieny,Pilieny,SS060407,Pilieny Phcu,lIJwnQgqbg7,Pilieny PHCU,8.2653745,30.2009451,phcu,PHCU,1
Unity,SS06,Leer,SS0604,Guat,Guat,SS060404,Rupchay Phcu,PRtOnRARdCa,Rupchay PHCU,8.301856,30.138416,phcu,PHCU,1
Unity,SS06,Leer,SS0604,Yang,Yang,SS060408,Thonyor Phcc,t2IBP0paDla,Thonyor PHCC,8.2228466,30.2213162,phcc,PHCC,1
Upper Nile,SS07,Longochuk,SS0703,Pamach,Pamach,SS070305,Belwang Phcu,myWKBemERCv,Belwang PHCU,9.09259,33.38732,phcu,PHCU,1
Upper Nile,SS07,Longochuk,SS0703,Wudier,Wudier,SS070306,Chot Lual Phcu,BdKjvZGqXI2,Chot Lual PHCU,9.2489849,33.7770899,phcu,PHCU,1
Upper Nile,SS07,Longochuk,SS0703,Guelguk,Guelguk,SS070302,Chutbora Phcc,U2pv5fkNbYB,Chutbora PHCC,9.20612,33.75307,phcc,PHCC,1
Upper Nile,SS07,Longochuk,SS0703,Dajo,Dajo,SS070301,Dajok Phcc,wH9InfBEE5J,Dajok PHCC,9.20519,33.95814,phcu,PHCU,1
Upper Nile,SS07,Longochuk,SS0703,Guelguk,Guelguk,SS070302,Guelguk Phcc,VDuX7v6fdNx,Guelguk PHCC,9.7556,32.97987,phcu,PHCU,1
Upper Nile,SS07,Longochuk,SS0703,Longochuk,Longochuk,SS070303,Jongok Phcu,E86ylJwYxOm,Jongok PHCU,9.05467,33.4275,phcu,PHCU,1
Upper Nile,SS07,Longochuk,SS0703,Guelguk,Guelguk,SS070302,Majiok Phcu,zOOTnc5oaVi,Majiok PHCU,8.9421545,33.5061346,phcu,PHCU,1
Upper Nile,SS07,Longochuk,SS0703,Guelguk,Guelguk,SS070302,Malow Phcu,CZAyYwELCnr,Malow PHCU,8.9354,33.57154,phcu,PHCU,1
Upper Nile,SS07,Longochuk,SS0703,Malual,Malual,SS070304,Malual Phcu,RT9tqJ2NIuG,Malual PHCU,NA,NA,phcu,PHCU,1
Upper Nile,SS07,Longochuk,SS0703,Longochuk,Longochuk,SS070303,Mathiang Phcc,Qf70H5Zhugs,Mathiang PHCC,9.0264753,33.499083,phcc,PHCC,1
Upper Nile,SS07,Longochuk,SS0703,Pamach,Pamach,SS070305,Pamac Phcu,VI9x549pcRd,Pamac PHCU,8.92106,33.7431,phcu,PHCU,1
Upper Nile,SS07,Longochuk,SS0703,Wudier,Wudier,SS070306,Ugier Phcu,QUzZRLKe5Tz,Ugier PHCU,9.31058,33.69529,phcu,PHCU,1
Upper Nile,SS07,Longochuk,SS0703,Longochuk,Longochuk,SS070303,Warweng Phcu,dYOOZzns8px,Warweng PHCU,9.0340047,33.4692177,phcu,PHCU,1
Upper Nile,SS07,Longochuk,SS0703,Guelguk,Guelguk,SS070302,Watber Phcc,jRgm2pE2sAq,Watber PHCC,8.9411884,33.5620875,phcu,PHCU,1
Upper Nile,SS07,Longochuk,SS0703,Dajo,Dajo,SS070301,Wichlita Phcu,Qs240yF9Z8S,Wichlita PHCU,9.25434,33.8427,phcu,PHCU,1
Upper Nile,SS07,Luakpiny/Nasir,SS0704,Kiech Kuon,Kiech Kuon,SS070403,Dhekdhek Phcu,fYqaNC8Kpe3,Dhekdhek PHCU,8.67535,33.13563,phcu,PHCU,1
Upper Nile,SS07,Luakpiny/Nasir,SS0704,Dingkar,Dingkar,SS070401,Dingkar Phcu,JhTLpDCdqJ3,Dingkar PHCU,8.75428,33.03115,phcu,PHCU,1
Upper Nile,SS07,Luakpiny/Nasir,SS0704,Roam,Roam,SS070408,Gaireng Phcu,qOlrEij0IwQ,Gaireng PHCU,8.89866,33.0286,phcu,PHCU,1
Upper Nile,SS07,Luakpiny/Nasir,SS0704,Maker,Maker,SS070406,Gurnyang Phcu,GucHASSPjIt,Gurnyang PHCU,8.69635,33.39457,phcu,PHCU,1
Upper Nile,SS07,Luakpiny/Nasir,SS0704,Roam,Roam,SS070408,Homkor Phcu,h57RNt5tUit,Homkor PHCU,8.71508,33.08593,phcu,PHCU,1
Upper Nile,SS07,Luakpiny/Nasir,SS0704,Jikmir,Jikmir,SS070402,Jikmir Phcc,xBAqaWmzlZQ,Jikmir PHCC,8.45327,33.18926,phcc,PHCC,1
Upper Nile,SS07,Luakpiny/Nasir,SS0704,Kiech Kuon,Kiech Kuon,SS070403,Kierwan Phcu,A9lfvCPxKdn,Kierwan PHCU,8.78224,33.0403,phcu,PHCU,1
Upper Nile,SS07,Luakpiny/Nasir,SS0704,Kuerenge-Ke,Kuerenge-Ke,SS070404,Kierwanding Phcu,wHhrswCEKpy,Kierwanding PHCU,8.78416,33.04091,phcu,PHCU,1
Upper Nile,SS07,Luakpiny/Nasir,SS0704,Dingkar,Dingkar,SS070401,Lual Yak Phcu,oZVXebbILEy,Lual Yak PHCU,8.7701,32.97685,phcu,PHCU,1
Upper Nile,SS07,Luakpiny/Nasir,SS0704,Mading,Mading,SS070405,Mading Phcc,rKt06B3rC0S,Mading PHCC,8.77329,33.32192,phcc,PHCC,1
Upper Nile,SS07,Luakpiny/Nasir,SS0704,Kuerenge-Ke,Kuerenge-Ke,SS070404,Malek Phcu,pU7QlLLLcg5,Malek PHCU,8.81634,33.04755,phcu,PHCU,1
Upper Nile,SS07,Luakpiny/Nasir,SS0704,Kuerenge-Ke,Kuerenge-Ke,SS070404,Mandeng Phcu,Gmfp0R1IMnC,Mandeng PHCU,8.77291,33.32154,phcu,PHCU,1
Upper Nile,SS07,Luakpiny/Nasir,SS0704,Nasir,Nasir,SS070407,Nasir Hospital,Fb5xo3iyUr0,Nasir HOSPITAL,8.61695,33.07412,hospital,HOSPITAL,1
Upper Nile,SS07,Luakpiny/Nasir,SS0704,Kuerenge-Ke,Kuerenge-Ke,SS070404,Wanding Phcu,xqJ6BUuoICq,Wanding PHCU,8.07726,33.10405,phcu,PHCU,1
Upper Nile,SS07,Maban,SS0705,Banashowa,Banashowa,SS070501,Bougaya Phcu,yxAiV4SM6aU,Bougaya PHCU,9.95566,33.69246,phcu,PHCU,1
Upper Nile,SS07,Maban,SS0705,Boung,Boung,SS070502,Bunj Ri Phcc,tDKAzEPoKWZ,Bunj RI PHCC,9.95957,33.72501,phcc,PHCC,1
Upper Nile,SS07,Maban,SS0705,Banashowa,Banashowa,SS070501,Dangaji Phcu,Z75fKuupjAa,Dangaji PHCU,9.92692,33.65486,phcu,PHCU,1
Upper Nile,SS07,Maban,SS0705,Boung,Boung,SS070502,Gasm Allah Phcu,ZFJZj9NsrJk,Gasm Allah PHCU,9.96715,33.80648,phcu,PHCU,1
Upper Nile,SS07,Maban,SS0705,Jinmakda,Jinmakda,SS070504,Jamam Phcu,aBrVonWSggt,Jamam PHCU,10.14391,33.22826,phcu,PHCU,1
Upper Nile,SS07,Maban,SS0705,Khor El Amer,Khor El Amer,SS070505,Nilla Phcu,UlV8PXb7AqP,Nilla PHCU,10.107527,33.825232,phcu,PHCU,1
Upper Nile,SS07,Maban,SS0705,Jinkuata,Jinkuata,SS070503,Poumki Phcu,GKeN9k2vLFL,Poumki PHCU,10.2547,33.56203,phcu,PHCU,1
Upper Nile,SS07,Maban,SS0705,Boung,Boung,SS070502,Shatta Phcu,ysQut59Vxnq,Shatta PHCU,9.573043,33.554628,phcu,PHCU,1
Upper Nile,SS07,Maban,SS0705,Boung,Boung,SS070502,Thougji Phcu,nCAJrAZ7elU,Thougji PHCU,9.98376,33.71236,phcu,PHCU,1
East Eq,SS02,Magwi,SS0207,Magwi,Magwi,SS020702,Abara Phcc,ItenF1aBAZP,Abara PHCC,4.08236063,32.17887053,phcc,PHCC,1
East Eq,SS02,Magwi,SS0207,Magwi,Magwi,SS020702,Agoro Phcu,xY3PgQq6UNX,Agoro PHCU,4.282485,32.1875879,phcu,PHCU,1
East Eq,SS02,Magwi,SS0207,Magwi,Magwi,SS020702,Amee Phcu,OzCFoYB6ws6,Amee PHCU,4.0720369,32.0347283,phcu,PHCU,1
East Eq,SS02,Magwi,SS0207,Pageri,Pageri,SS020705,Arapi Phcu,c4yUMIp2slF,Arapi PHCU,3.8437996,31.970509,phcu,PHCU,0
East Eq,SS02,Magwi,SS0207,Magwi,Magwi,SS020702,Ayii Phcu,wweOsO4ZbAw,Ayii PHCU,4.213069000000001,31.994669,phcu,PHCU,1
East Eq,SS02,Magwi,SS0207,Mugali,Mugali,SS020703,Ganzi Phcu,jeolYv3cMZ4,Ganzi PHCU,3.6141900000000002,32.16333,phcu,PHCU,1
East Eq,SS02,Magwi,SS0207,Pageri,Pageri,SS020705,Kerepi Phcu,MiQyHCK5dJm,Kerepi PHCU,3.9025407,31.9248107,phcu,PHCU,0
East Eq,SS02,Magwi,SS0207,Lobone,Lobone,SS020701,Kicenga Phcc,x7BCshAZvzd,Kicenga PHCC,3.8776379999999997,32.626849,phcc,PHCC,1
East Eq,SS02,Magwi,SS0207,Pajok,Pajok,SS020706,Lagii Phcu,GxyyeQ4KK1K,Lagii PHCU,3.8717308,32.4776153,phcu,PHCU,0
East Eq,SS02,Magwi,SS0207,Pajok,Pajok,SS020706,Lerwa Phcu,mNpen2c5c2L,Lerwa PHCU,3.95180777,32.53987313,phcu,PHCU,1
East Eq,SS02,Magwi,SS0207,Lobone,Lobone,SS020701,Lobone Phcc,Eah2o9L9xLF,Lobone PHCC,3.79789,32.76134,phcc,PHCC,1
East Eq,SS02,Magwi,SS0207,Lobone,Lobone,SS020701,Lomarati Phcu,KHWBkdpamvF,Lomarati PHCU,3.9018643,32.6899531,phcu,PHCU,0
East Eq,SS02,Magwi,SS0207,Nimule,Nimule,SS020704,Longu Phcu,C5HHEbRi6Kn,Longu PHCU,3.56641846,32.13248668,phcu,PHCU,1
East Eq,SS02,Magwi,SS0207,Magwi,Magwi,SS020702,Magwi Cdot Phcc,vOm5CxF1qGR,Magwi CDOT PHCC,4.1229348,32.3043237,phcc,PHCC,1
East Eq,SS02,Magwi,SS0207,Magwi,Magwi,SS020702,Magwi Phcc,H5ymexi3gjf,Magwi PHCC,4.13607304,32.30104409,phcc,PHCC,1
East Eq,SS02,Magwi,SS0207,Magwi,Magwi,SS020702,Maji Phcu,KMiWgRB2gSI,Maji PHCU,4.0905874,32.208581,phcu,PHCU,0
East Eq,SS02,Magwi,SS0207,Mugali,Mugali,SS020703,Masindi Phcu,aCtLN91CmOq,Masindi PHCU,3.592136,32.1796157,phcu,PHCU,0
East Eq,SS02,Magwi,SS0207,Pageri,Pageri,SS020705,Moli Tokuro Phcc,Z7t9FDlwbUf,Moli Tokuro PHCC,3.9233110000000004,32.066653,phcu,PHCU,1
East Eq,SS02,Magwi,SS0207,Mugali,Mugali,SS020703,Mugali Phcc,KOz5zP6qkMf,Mugali PHCC,3.5665172,32.1971473,phcc,PHCC,1
East Eq,SS02,Magwi,SS0207,Nimule,Nimule,SS020704,Nimule Cdot Phcc,kXHxoSUMNSY,Nimule CDOT PHCC,3.58686619,32.06963438,phcc,PHCC,1
East Eq,SS02,Magwi,SS0207,Nimule,Nimule,SS020704,Nimule Hospital,dTANcKLxstU,NIMULE HOSPITAL,3.60036121,32.05672889,hospital,HOSPITAL,1
East Eq,SS02,Magwi,SS0207,Pageri,Pageri,SS020705,Nyaciga Phcc,TEMP0840nlnehesoi,Nyaciga PHCC,3.8396258,32.252485,phcc,PHCC,1
East Eq,SS02,Magwi,SS0207,Magwi,Magwi,SS020702,Obbo Phcc,cWRCswspNvk,Obbo PHCC,4.04459273,32.42421273,phcc,PHCC,1
East Eq,SS02,Magwi,SS0207,Magwi,Magwi,SS020702,Ofiriha Magwi Phcu,yHNAmy8jqIb,Ofiriha Magwi PHCU,4.3142022,32.2996838,phcu,PHCU,1
East Eq,SS02,Magwi,SS0207,Nimule,Nimule,SS020704,Olikwi Phcu,Bt4Egre4hVC,Olikwi PHCU,3.57093,32.07906,phcu,PHCU,1
East Eq,SS02,Magwi,SS0207,Magwi,Magwi,SS020702,Omeo Phcu,XjmFWVLMWVk,Omeo PHCU,4.20996709,32.24779328,phcu,PHCU,1
East Eq,SS02,Magwi,SS0207,Pageri,Pageri,SS020705,Opari Phcc,zmEkkIh73Mg,Opari PHCC,3.92332033,32.06749795,phcc,PHCC,1
East Eq,SS02,Magwi,SS0207,Pageri,Pageri,SS020705,Orobe Phcu,bpmIPAdmgDM,Orobe PHCU,3.7556319,31.9930447,phcu,PHCU,0
East Eq,SS02,Magwi,SS0207,Magwi,Magwi,SS020702,Owinykibul Phcu,in75g93kOun,OWINYKIBUL PHCU,3.84111,32.26569,phcu,PHCU,1
East Eq,SS02,Magwi,SS0207,Pageri,Pageri,SS020705,Pageri Phcc,i0oamO5BW0I,Pageri PHCC,3.86724905,31.95682625,phcu,PHCU,1
East Eq,SS02,Magwi,SS0207,Pajok,Pajok,SS020706,Pajok Phcc,lSg8THL26vT,Pajok PHCC,3.8599469999999996,32.48367,phcc,PHCC,1
East Eq,SS02,Magwi,SS0207,Magwi,Magwi,SS020702,Palotaka Phcu,ftFknBejxCt,Palotaka PHCU,4.02317,32.47014505,phcu,PHCU,1
East Eq,SS02,Magwi,SS0207,Magwi,Magwi,SS020702,Paluonganyi Phcu,w78UFFbkwOI,Paluonganyi PHCU,4.1334028,32.32686,phcu,PHCU,1
East Eq,SS02,Magwi,SS0207,Lobone,Lobone,SS020701,Palwar Phcu,N2O4a2MhUZA,Palwar PHCU,3.91753739,32.59805725,phcu,PHCU,1
East Eq,SS02,Magwi,SS0207,Pajok,Pajok,SS020706,Pogee Phcu,qHccRhwWAhP,Pogee PHCU,3.76672,32.5188,phcu,PHCU,1
East Eq,SS02,Magwi,SS0207,Magwi,Magwi,SS020702,Winyolwonga Phcu,RJfiiPwC4N4,WinyoLwonga PHCU,4.0182457,32.1917566,phcu,PHCU,0
Upper Nile,SS07,Maiwut,SS0706,Jotoma,Jotoma,SS070602,Jotome Phcu,umn7o95o6e0,Jotome PHCU,8.63958,33.8334,phcu,PHCU,1
Upper Nile,SS07,Maiwut,SS0706,Maiwut,Maiwut,SS070604,Maiwut Phcc,KIHfWzos4qS,Maiwut PHCC,8.60622,33.92406,phcc,PHCC,1
Upper Nile,SS07,Maiwut,SS0706,Olang,Olang,SS070605,Malek Phcu,a6gzTsixFLv,Malek PHCU,8.64811,33.74591,phcu,PHCU,1
Upper Nile,SS07,Maiwut,SS0706,Kigila,Kigila,SS070603,Nyetok Phcu,y20mrF2xeQv,Nyetok PHCU,8.54366,33.8258,phcu,PHCU,1
Upper Nile,SS07,Maiwut,SS0706,Maiwut,Maiwut,SS070604,Pagak Phcc,xmJmoE4dnWk,Pagak PHCC,8.47328,33.02048,phcc,PHCC,1
Upper Nile,SS07,Maiwut,SS0706,Maiwut,Maiwut,SS070604,Pinythor Phcu,xwWCAXFtlVk,Pinythor PHCU,8.72448,33.85332,phcu,PHCU,1
Upper Nile,SS07,Maiwut,SS0706,Jekow,Jekow,SS070601,Turuw Phcu,yiyrucTrB1Z,Turuw PHCU,8.49989,33.44138,phcu,PHCU,1
Upper Nile,SS07,Maiwut,SS0706,Olang,Olang,SS070605,Uleng Phcu,PlPti9pF5vs,Uleng PHCU,8.7122,33.72748,phcu,PHCU,1
Upper Nile,SS07,Maiwut,SS0706,Jotoma,Jotoma,SS070602,Wunkir Phcu,PnPPbsMRxQ2,Wunkir PHCU,8.64365,33.84334,phcc,PHCC,1
Upper Nile,SS07,Malakal,SS0707,Southern Malakal,Southern Malakal,SS070705,Assossa Phcu,waIwEEHQd8M,Assossa PHCU,9.5155,31.6675,phcc,PHCC,1
Upper Nile,SS07,Malakal,SS0707,Southern Malakal,Southern Malakal,SS070705,Bam Phcu,XXtSlGxZ64h,Bam PHCU,9.50336,31.65923,phcc,PHCC,1
Upper Nile,SS07,Malakal,SS0707,Central Malakal,Central Malakal,SS070702,Malakal Teaching Hospital,QjlA8Qc4L28,Malakal Teaching HOSPITAL,9.52905,31.65183,hospital,HOSPITAL,1
Upper Nile,SS07,Malakal,SS0707,Ogot,Ogot,SS070706,Wau Shilluk Phcu,IHsj4wP9pAl,Wau Shilluk PHCU,9.66145,31.74593,phcc,PHCC,1
Upper Nile,SS07,Manyo,SS0708,Adhidwoi,Adhidwoi,SS070801,Athidwoi Phcu,DuQY34mxrC0,Athidwoi PHCU,10.25053,32.24206,phcu,PHCU,1
Upper Nile,SS07,Manyo,SS0708,Adhidwoi,Adhidwoi,SS070801,Aweth Phcc,gAAFeXahUXI,Aweth PHCC,10.34108,32.22313,phcc,PHCC,1
Upper Nile,SS07,Manyo,SS0708,Kaka,Kaka,SS070802,Kaka Phcc,UmkdBLsmzzv,Kaka PHCC,10.5792,32.15722,phcc,PHCC,1
Upper Nile,SS07,Manyo,SS0708,Adhidwoi,Adhidwoi,SS070801,Ogon Phcu,nYJ2uVg2OrC,Ogon PHCU,10.13134,32.27005,phcu,PHCU,1
Upper Nile,SS07,Manyo,SS0708,Kaka,Kaka,SS070802,Thorgwang Phcu,BJkQ9ZT1YPj,Thorgwang PHCU,11.00102,32.64202,phcu,PHCU,1
Upper Nile,SS07,Manyo,SS0708,Wedakona,Wedakona,SS070804,Wadakona Phcc,IV0Pej0l60h,Wadakona PHCC,11.60823,32.72822,phcc,PHCC,1
West Eq,SS10,Maridi,SS1003,Mambe,Mambe,SS100303,Affa Phcu,wRZbUkH5K8g,Affa PHCU,4.9729,29.642649,phcu,PHCU,1
West Eq,SS10,Maridi,SS1003,Kozi,Kozi,SS100301,Amaki Phcu,yhAHWejNn5d,Amaki PHCU,5.13809,29.47794,phcu,PHCU,1
West Eq,SS10,Maridi,SS1003,Maridi,Maridi,SS100304,Betha Saida Ecs Phcc,ROXfyH8Js0V,Betha Saida ECS PHCC,4.91130812,29.45162262,phcc,PHCC,1
West Eq,SS10,Maridi,SS1003,Landili,Landili,SS100302,Bingo Phcu,v9rQWV9kxfd,Bingo PHCU,4.5971221,29.8341319,phcu,PHCU,0
West Eq,SS10,Maridi,SS1003,Kozi,Kozi,SS100301,Chochoro Phcu,kcgPOgga70z,Chochoro PHCU,4.99978,29.45599,phcu,PHCU,1
West Eq,SS10,Maridi,SS1003,Maridi,Maridi,SS100304,Don Bosco Clinic Phcc,GdScjiY0b11,Don Bosco Clinic PHCC,4.9174600999999996,29.4327841,phcc,PHCC,1
West Eq,SS10,Maridi,SS1003,Landili,Landili,SS100302,Dorrolilli Phcu,UZ4lQWg2muu,Dorrolilli PHCU,4.65668,29.86777,phcu,PHCU,1
West Eq,SS10,Maridi,SS1003,Landili,Landili,SS100302,Dukudu-Olo Phcc,NRhiIlVBemz,Dukudu-olo PHCC,4.590831,29.863647,phcc,PHCC,1
West Eq,SS10,Maridi,SS1003,Mambe,Mambe,SS100303,Eyira Phcu,TEMP981bkfh7839ab,NA,4.973469,29.6408281,phcu,PHCU,1
West Eq,SS10,Maridi,SS1003,Kozi,Kozi,SS100301,Kozi Phcu,PfZOK4nMz2J,Kozi PHCU,5.507823,29.71164,phcu,PHCU,1
West Eq,SS10,Maridi,SS1003,Ngamunde,Ngamunde,SS100305,Kwanga Phcu,L7p27izHOBS,Kwanga PHCU,4.860509999999999,29.47308,phcu,PHCU,1
West Eq,SS10,Maridi,SS1003,Mambe,Mambe,SS100303,Langua Phcu,KX2suz7SSIL,Langua PHCU,5.1065499999999995,29.98026,phcu,PHCU,1
West Eq,SS10,Maridi,SS1003,Mambe,Mambe,SS100303,Longbua Phcu,hj4t9X7ukF8,Longbua PHCU,5.0261499999999995,29.71507,phcu,PHCU,1
West Eq,SS10,Maridi,SS1003,Maridi,Maridi,SS100304,Mabilindi Phcu,KiUCk7QLBa7,Mabilindi PHCU,4.93152346,29.51290472,phcu,PHCU,1
West Eq,SS10,Maridi,SS1003,Mambe,Mambe,SS100303,Mambe 1 Phcu,oieR51dsAKA,Mambe 1 PHCU,4.868179999999999,29.82424,phcu,PHCU,1
West Eq,SS10,Maridi,SS1003,Maridi,Maridi,SS100304,Maridi Hospital,iqt2FuBd2Dv,Maridi HOSPITAL,4.91619027,29.46444346,hospital,HOSPITAL,1
West Eq,SS10,Maridi,SS1003,Maridi,Maridi,SS100304,Mboroko Phcu,YunIqAuI1XO,Mboroko PHCU,4.85924118,29.43378311,phcu,PHCU,1
West Eq,SS10,Maridi,SS1003,Ngamunde,Ngamunde,SS100305,Meke 2 Phcu,f4Vp68vbPVh,Meke 2 PHCU,4.88605,29.49533,phcu,PHCU,1
West Eq,SS10,Maridi,SS1003,Maridi,Maridi,SS100304,Moku Phcu,JeRVoN1a75o,Moku PHCU,4.907179999999999,29.49709,phcu,PHCU,1
West Eq,SS10,Maridi,SS1003,Maridi,Maridi,SS100304,Mudubai Phcu,AzSGZcPoLMs,Mudubai PHCU,4.99272,29.5047,phcu,PHCU,1
West Eq,SS10,Maridi,SS1003,Ngamunde,Ngamunde,SS100305,Naam Phcu,yzFyFPKo8Jy,Naam PHCU,4.597067,29.8339201,phcu,PHCU,0
West Eq,SS10,Maridi,SS1003,Maridi,Maridi,SS100304,Nagbaka Phcu,Bo73vmhfUyj,Nagbaka PHCU,4.95404622,29.43674342,phcu,PHCU,1
West Eq,SS10,Maridi,SS1003,Ngamunde,Ngamunde,SS100305,Ngamunde Phcc,TEO4tI2Wygm,Ngamunde PHCC,4.7555481,29.599981,phcc,PHCC,0
West Eq,SS10,Maridi,SS1003,Ngamunde,Ngamunde,SS100305,Ngburusai Phcu,dBDmUd79aV4,Ngburusai PHCU,4.8188699999999995,29.51088,phcu,PHCU,1
