province,district,name,facility_type,ownership,latitude,longitude,ll_source,fid
Eastern Cape,Cacadu,Aberdeen Hospital,District Hospital,MoH,-32.4862,24.0609,GPS,50484
Eastern Cape,Cacadu,Aberdeen Satellite Clinic,Satellite Clinic,MoH,-32.475,24.052,GPS,50485
Eastern Cape,Cacadu,AD Keet Clinic,Clinic,MoH,-34.0602,24.9183,GPS,50486
Eastern Cape,Cacadu,Addo Clinic,Clinic,MoH,-33.5422,25.6908,GPS,50487
Eastern Cape,Cacadu,Addo Enon Satellite Clinic,Satellite Clinic,MoH,-33.3946,25.5463,GPS,50488
Eastern Cape,Amathole,Adelaide Clinic,Clinic,MoH,-32.7071,26.2946,GPS,50489
Eastern Cape,Amathole,Adelaide Gateway Clinic,Clinic,MoH,-32.6999,26.294,GPS,50490
Eastern Cape,Amathole,Adelaide Hospital,District Hospital,MoH,-32.7009,26.2943,GPS,50491
Eastern Cape,Cacadu,Aeroville Clinic,Clinic,MoH,-32.7496,25.6035,GPS,50492
Eastern Cape,Alfred Nzo,Afsondering Clinic,Clinic,MoH,-30.1798,28.9481,GPS,50493
Eastern Cape,Chris Hani,Agnes Rest Clinic,Clinic,MoH,-31.6974,27.0313,GPS,50494
Eastern Cape,Cacadu,Albany Road Clinic,Clinic,MoH,-33.1803,26.3212,GPS,50495
Eastern Cape,Cacadu,Alexandria Clinic,Clinic,MoH,-33.6512,26.4142,GPS,50496
Eastern Cape,Nelson Mandela Bay,Algoa Park Clinic,Clinic,MoH,-33.9011,25.5645,GPS,50497
Eastern Cape,Cacadu,Alicedale Clinic,Clinic,MoH,-33.3173,26.0906,GPS,50498
Eastern Cape,Joe Gqabi,Aliwal North Block H Clinic,Clinic,MoH,-30.6883,26.6867,GPS,50499
Eastern Cape,Joe Gqabi,Aliwal North Hospital,District Hospital,MoH,-30.6969,26.7072,GPS,50500
Eastern Cape,Chris Hani,All Saints Gateway Clinic,Clinic,MoH,-31.6619,28.0504,GPS,50501
Eastern Cape,Chris Hani,All Saints Hospital,District Hospital,MoH,-31.6619,28.0504,GPS,50502
Eastern Cape,Buffalo City,Alphendale Clinic,Clinic,MoH,-33.0135,27.8413,GPS,50503
Eastern Cape,Amathole,Amabele Clinic,Clinic,MoH,-32.6633,27.5239,GPS,50504
Eastern Cape,Alfred Nzo,Amadiba Clinic,Clinic,MoH,-31.0731,30.1792,GPS,50505
Eastern Cape,Buffalo City,Amahleke Clinic,Clinic,MoH,-32.8337,27.2283,GPS,50506
Eastern Cape,Alfred Nzo,Amandengane Clinic,Clinic,MoH,-31.0861,29.7505,GPS,50507
Eastern Cape,Alfred Nzo,Amantshangase Clinic,Clinic,MoH,-30.8396,29.5877,GPS,50508
Eastern Cape,Amathole,Amathole Basin Clinic,Clinic,MoH,-32.6958,26.993,GPS,50509
Eastern Cape,Buffalo City,Amatola TB Clinic,Clinic,MoH,-32.89,27.39,GPS,50510
Eastern Cape,Cacadu,Andries Vosloo Hospital,District Hospital,MoH,-32.7218,25.5953,GPS,50511
Eastern Cape,Cacadu,Andrieskraal Clinic,Clinic,MoH,-33.7465,24.6404,GPS,50512
Eastern Cape,Cacadu,Anglo African Street Clinic,Clinic,MoH,-33.31,26.5246,GPS,50513
Eastern Cape,Cacadu,Asherville Clinic,Clinic,MoH,-32.2703,24.5556,GPS,50514
Eastern Cape,Chris Hani,Askeaton Clinic,Clinic,MoH,-31.6252,27.4607,GPS,50515
Eastern Cape,Buffalo City,Aspiranza Clinic,Clinic,MoH,-33.0191,27.8499,GPS,50516
Eastern Cape,Amathole,Assina Mandla Clinic,Clinic,MoH,-32.7504,26.7941,GPS,50517
Eastern Cape,Chris Hani,Bacclesfarm Clinic,Clinic,MoH,-32.0399,26.4565,GPS,50518
Eastern Cape,Amathole,Badi Clinic,Clinic,MoH,-32.287,28.6627,GPS,50519
Eastern Cape,O.R.Tambo,Bala Clinic,Clinic,MoH,-30.9902,29.5369,GPS,50520
Eastern Cape,Alfred Nzo,Baleni Clinic,Clinic,MoH,-31.1591,29.9715,GPS,50521
Eastern Cape,Amathole,Balfour Clinic,Clinic,MoH,-32.5457,26.6821,GPS,50522
Eastern Cape,O.R.Tambo,Bambisana Gateway Clinic,Clinic,MoH,-31.4508,29.4546,GPS,50523
Eastern Cape,O.R.Tambo,Bambisana Hospital,District Hospital,MoH,-31.4501,29.454,GPS,50524
Eastern Cape,Chris Hani,Banzi Clinic,Clinic,MoH,-32.1263,27.5198,GPS,50525
Eastern Cape,Chris Hani,Baroda Clinic,Clinic,MoH,-32.0021,25.5103,GPS,50526
Eastern Cape,Cacadu,Bathurst Clinic,Clinic,MoH,-33.4937,26.8312,GPS,50527
Eastern Cape,Cacadu,Baviaans Clinic,Clinic,MoH,-33.3246,24.3442,GPS,50528
Eastern Cape,O.R.Tambo,Baziya CHC,Community Health Centre,MoH,-31.6151,28.3837,GPS,50529
Eastern Cape,Buffalo City,Beacon Bay Clinic,Clinic,MoH,-32.9679,27.9384,GPS,50530
Eastern Cape,Cacadu,Beatrice Ngwentle Clinic,Clinic,MoH,-32.7175,25.5915,GPS,50531
Eastern Cape,Amathole,Bedford Clinic,Clinic,MoH,-32.6793,26.0888,GPS,50532
Eastern Cape,Amathole,Bedford Hospital,District Hospital,MoH,-32.6762,26.0831,GPS,50533
Eastern Cape,Chris Hani,Beestekraal Clinic,Clinic,MoH,-31.5196,27.8097,GPS,50534
Eastern Cape,Chris Hani,Bengu Clinic Emalahleni,Clinic,MoH,-31.7927,27.3354,GPS,50535
Eastern Cape,Joe Gqabi,Bensonvale Clinic,Clinic,MoH,-30.5822,27.3566,GPS,50536
Eastern Cape,Cacadu,Bergsig Clinic,Clinic,MoH,-33.3873,25.4497,GPS,50537
Eastern Cape,Buffalo City,Berlin Clinic,Clinic,MoH,-32.8839,27.5778,GPS,50538
Eastern Cape,Joe Gqabi,Bethania Clinic,Clinic,MoH,-30.6228,28.333,GPS,50539
Eastern Cape,Amathole,Bezuidenhoutville Clinic,Clinic,MoH,-32.688,26.2981,GPS,50540
Eastern Cape,Amathole,Bhele Clinic,Clinic,MoH,-33.2026,27.1827,GPS,50541
Eastern Cape,Buffalo City,Bhisho Gateway Clinic,Clinic,MoH,-32.8277,27.4551,GPS,50542
Eastern Cape,Buffalo City,Bhisho Hospital,District Hospital,MoH,-32.8277,27.4552,GPS,50543
Eastern Cape,Buffalo City,Bhisho Parliament Clinic,Clinic,MoH,-32.8639,27.429,GPS,50544
Eastern Cape,Cacadu,Bhongweni Clinic,Clinic,MoH,-32.7449,25.7983,GPS,50545
Eastern Cape,Chris Hani,Bilatye Clinic,Clinic,MoH,-31.9464,27.3651,GPS,50546
Eastern Cape,O.R.Tambo,Bityi Clinic,Clinic,MoH,-31.7942,28.5234,GPS,50547
Eastern Cape,Cacadu,BJ Vorster  Hospital Kareedouw,District Hospital,MoH,-33.9515,24.2979,GPS,50548
Eastern Cape,Joe Gqabi,Bluegums Clinic,Clinic,MoH,-30.5475,27.2324,GPS,50549
Eastern Cape,O.R.Tambo,Bodweni Clinic,Clinic,MoH,-31.185,29.5516,GPS,50550
Eastern Cape,Chris Hani,Bokleni Clinic,Clinic,MoH,-31.5946,28.1949,GPS,50551
Eastern Cape,Chris Hani,Bolotwa Clinic Confimvaba,Clinic,MoH,-31.5919,27.2009,GPS,50552
Eastern Cape,Amathole,Bolotwa Clinic Idutywa,Clinic,MoH,-31.917,28.2921,GPS,50553
Eastern Cape,Amathole,Bomvana Clinic,Clinic,MoH,-32.1132,28.8016,GPS,50554
Eastern Cape,O.R.Tambo,Bomvini Clinic,Clinic,MoH,-31.4018,29.4724,GPS,50555
Eastern Cape,Chris Hani,Boomplaas Clinic,Clinic,MoH,-31.5129,27.1707,GPS,50556
Eastern Cape,Nelson Mandela Bay,Booysens Park Clinic,Clinic,MoH,-33.862,25.4587,GPS,50557
Eastern Cape,Buffalo City,Braelyn Clinic,Clinic,MoH,-32.9999,27.8793,GPS,50558
Eastern Cape,Buffalo City,Braelyn Extension Clinic,Clinic,MoH,-33.004,27.861,GPS,50559
Eastern Cape,Buffalo City,Breidbach Clinic,Clinic,MoH,-32.8881,27.4436,GPS,50560
Eastern Cape,Nelson Mandela Bay,Brister House Clinic,Clinic,MoH,-33.9575,25.6187,GPS,50561
Eastern Cape,Cacadu,Brug Straat Clinic Jansenville,Clinic,MoH,-32.9481,24.6656,GPS,50562
Eastern Cape,O.R.Tambo,Buchele Clinic,Clinic,MoH,-31.4956,29.6217,GPS,50563
Eastern Cape,Buffalo City,Bulembu Clinic,Clinic,MoH,-32.8734,27.2677,GPS,50564
Eastern Cape,O.R.Tambo,Buntingville Clinic,Clinic,MoH,-31.6338,28.8666,GPS,50565
Eastern Cape,Joe Gqabi,Burgersdorp Clinic,Clinic,MoH,-30.9948,26.3321,GPS,50566
Eastern Cape,Joe Gqabi,Burgersdorp Hospital,District Hospital,MoH,-30.9935,26.314,GPS,50567
Eastern Cape,Amathole,Burnshill Clinic,Clinic,MoH,-32.769,27.0551,GPS,50568
Eastern Cape,Amathole,Butterworth Gateway Clinic,Clinic,MoH,-32.3323,28.1388,GPS,50569
Eastern Cape,Amathole,Butterworth Hospital,District Hospital,MoH,-32.3323,28.1388,GPS,50570
Eastern Cape,O.R.Tambo,Caba Clinic,Clinic,MoH,-30.9363,28.7115,GPS,50571
Eastern Cape,O.R.Tambo,Caguba Clinic,Clinic,MoH,-31.6237,29.4494,GPS,50572
Eastern Cape,Chris Hani,Cala Hospital,District Hospital,MoH,-31.5223,27.6827,GPS,50573
Eastern Cape,Buffalo City,Cambridge Clinic,Clinic,MoH,-32.9779,27.8895,GPS,50574
Eastern Cape,Alfred Nzo,Cancele Clinic,Clinic,MoH,-30.8479,28.789,GPS,50575
Eastern Cape,O.R.Tambo,Canzibe Gateway Clinic,Clinic,MoH,-31.8088,29.0658,GPS,50576
Eastern Cape,O.R.Tambo,Canzibe Hospital,District Hospital,MoH,-31.8088,29.0659,GPS,50577
Eastern Cape,Amathole,Cata Clinic,Clinic,MoH,-32.5948,27.1248,GPS,50578
Eastern Cape,Amathole,Cathcart Clinic,Clinic,MoH,-32.2983,27.1445,GPS,50579
Eastern Cape,Amathole,Cathcart Hospital,District Hospital,MoH,-32.2902,27.1369,GPS,50580
Eastern Cape,Amathole,CC Lloyd Clinic,Clinic,MoH,-32.775,26.6336,GPS,50581
Eastern Cape,Buffalo City,Cecilia Makiwane Hospital,Regional Hospital,MoH,-32.9278,27.7442,GPS,50582
Eastern Cape,Nelson Mandela Bay,Central CHC Sandford,Community Health Centre,MoH,-33.958,25.6017,GPS,50583
Eastern Cape,Buffalo City,Central Clinic East London,Clinic,MoH,-33.0168,27.9059,GPS,50584
Eastern Cape,Buffalo City,Central Clinic King William's Town,Clinic,MoH,-32.8794,27.3954,GPS,50585
Eastern Cape,Nelson Mandela Bay,Central Clinic Port Elizabeth,Clinic,MoH,-33.9643,25.6133,GPS,50586
Eastern Cape,Nelson Mandela Bay,Chatty Clinic,Clinic,MoH,-33.8732,25.4954,GPS,50587
Eastern Cape,Buffalo City,Chris Hani Clinic,Clinic,MoH,-32.9546,27.9251,GPS,50588
Eastern Cape,Chris Hani,Cimezile Clinic,Clinic,MoH,-32.274,26.6235,GPS,50589
Eastern Cape,O.R.Tambo,Civic Centre Clinic Mthatha,Clinic,MoH,-31.5826,28.7899,GPS,50590
Eastern Cape,Chris Hani,Clarkebury Clinic,Clinic,MoH,-31.7919,28.2879,GPS,50591
Eastern Cape,Cacadu,Clarkson Clinic,Clinic,MoH,-34.0104,24.2945,GPS,50592
Eastern Cape,Joe Gqabi,Cloete Joubert Hospital  Barkly East,District Hospital,MoH,-30.9676,27.5851,GPS,50593
Eastern Cape,Nelson Mandela Bay,Coega Satellite Clinic,Satellite Clinic,MoH,-33.7567,25.6579,GPS,50594
Eastern Cape,Chris Hani,Cofimvaba Hospital,District Hospital,MoH,-32.0119,27.5835,GPS,50595
Eastern Cape,Nelson Mandela Bay,Colchester Health Post,Health Post,MoH,-33.683,25.8,GPS,50596
Eastern Cape,Cacadu,Coldstream Satellite Clinic,Satellite Clinic,MoH,-33.9618,23.7008,GPS,50597
Eastern Cape,Buffalo City,Collondale Satellite Clinic,Satellite Clinic,MoH,-33.0397,27.8188,GPS,50598
Eastern Cape,Chris Hani,Cradock Gateway Clinic,Clinic,MoH,-32.1689,25.6162,GPS,50599
Eastern Cape,Chris Hani,Cradock Hospital,District Hospital,MoH,-32.1673,25.6224,GPS,50600
Eastern Cape,Amathole,Cumakala 1 Clinic,Clinic,MoH,-32.5571,27.4475,GPS,50601
Eastern Cape,Amathole,Cumakala 2 Clinic,Clinic,MoH,-32.5629,27.4487,GPS,50602
Eastern Cape,Chris Hani,Cumakala Satellite Clinic,Satellite Clinic,MoH,-31.6481,27.2246,GPS,50603
Eastern Cape,Chris Hani,Cwecweni Clinic,Clinic,MoH,-31.9367,28.0558,GPS,50604
Eastern Cape,O.R.Tambo,Cwele Clinic,Clinic,MoH,-31.672,29.2129,GPS,50605
Eastern Cape,Amathole,Cwili Clinic,Clinic,MoH,-32.677,28.3633,GPS,50606
Eastern Cape,Amathole,Daliwe Clinic,Clinic,MoH,-32.3019,27.1513,GPS,50607
Eastern Cape,Alfred Nzo,Daliwonga Clinic,Clinic,MoH,-31.1052,29.9072,GPS,50608
Eastern Cape,Amathole,Debe Nek Clinic,Clinic,MoH,-32.8458,27.1379,GPS,50609
Eastern Cape,Chris Hani,Didimana Clinic,Clinic,MoH,-32.1758,26.8186,GPS,50610
Eastern Cape,Buffalo City,Dimbaza CHC,Community Health Centre,MoH,-32.8352,27.2139,GPS,50611
Eastern Cape,Amathole,Donnington Clinic,Clinic,MoH,-32.7236,27.4258,GPS,50612
Eastern Cape,Nelson Mandela Bay,Dora Nginza Hospital,Regional Hospital,MoH,-33.8825,25.5631,GPS,50613
Eastern Cape,Chris Hani,Dordrecht Clinic,Clinic,MoH,-31.3748,27.0462,GPS,50614
Eastern Cape,Chris Hani,Dordrecht Hospital,District Hospital,MoH,-31.3913,27.0456,GPS,50615
Eastern Cape,O.R.Tambo,Double Falls Clinic,Clinic,MoH,-31.3739,29.123,GPS,50616
Eastern Cape,Amathole,Dr CL Bikitsha Clinic,Clinic,MoH,-32.2782,28.1055,GPS,50617
Eastern Cape,O.R.Tambo,Dr Malizo Mpehle Memorial Hospital,District Hospital,MoH,-31.3165,28.7781,GPS,50618
Eastern Cape,Buffalo City,Drake Road Clinic,Clinic,MoH,-32.9857,27.9292,GPS,50619
Eastern Cape,Nelson Mandela Bay,Du Preez Street Clinic,Clinic,MoH,-33.8033,25.4627,GPS,50620
Eastern Cape,Buffalo City,Duncan Village CHC,Community Health Centre,MoH,-33.0078,27.886,GPS,50621
Eastern Cape,Alfred Nzo,Dundee Clinic,Clinic,MoH,-30.7489,29.4183,GPS,50622
Eastern Cape,Alfred Nzo,Dungu Clinic,Clinic,MoH,-30.9569,29.3028,GPS,50623
Eastern Cape,Nelson Mandela Bay,Edamini Clinic,Clinic,MoH,-33.8327,25.3856,GPS,50624
Eastern Cape,O.R.Tambo,Efata Clinic,Clinic,MoH,-31.5697,28.7242,GPS,50625
Eastern Cape,Chris Hani,Ekuphumleni Clinic,Clinic,MoH,-32.1781,26.7819,GPS,50626
Eastern Cape,Nelson Mandela Bay,Ekuphumleni Satellite Clinic Nelson Mandela Bay,Satellite Clinic,MoH,-33.8545,25.2903,GPS,50627
Eastern Cape,Chris Hani,Elliot Clinic,Clinic,MoH,-31.3333,27.8495,GPS,50628
Eastern Cape,Chris Hani,Elliot Hospital,District Hospital,MoH,-31.3371,27.838,GPS,50629
Eastern Cape,Chris Hani,Elucwecwe Clinic,Clinic,MoH,-31.7338,27.8688,GPS,50630
Eastern Cape,Chris Hani,Eluhewini Clinic,Clinic,MoH,-31.7058,28.1264,GPS,50631
Eastern Cape,Alfred Nzo,Elukholweni Clinic,Clinic,MoH,-30.6329,28.8481,GPS,50632
Eastern Cape,Chris Hani,Eluxolweni Clinic,Clinic,MoH,-31.6433,25.8052,GPS,50633
Eastern Cape,Joe Gqabi,Empilisweni Clinic,Clinic,MoH,-31.1936,28.2395,GPS,50634
Eastern Cape,Joe Gqabi,Empilisweni Hospital,District Hospital,MoH,-30.5332,27.3534,GPS,50635
Eastern Cape,Buffalo City,Empilweni Gompo CHC,Community Health Centre,MoH,-33.0145,27.8489,GPS,50636
Eastern Cape,Chris Hani,Engojini Clinic,Clinic,MoH,-32.2239,26.7539,GPS,50637
Eastern Cape,Joe Gqabi,Esilindini Clinic,Clinic,MoH,-30.5439,27.3303,GPS,50638
Eastern Cape,Amathole,Ethembeni Clinic,Clinic,MoH,-32.7628,27.4318,GPS,50639
Eastern Cape,Joe Gqabi,Eureka Clinic,Clinic,MoH,-31.0103,26.319,GPS,50640
Eastern Cape,Chris Hani,Ezibeleni Clinic,Clinic,MoH,-31.9081,26.9564,GPS,50641
Eastern Cape,O.R.Tambo,Ezingcuka Clinic,Clinic,MoH,-31.3005,28.6583,GPS,50642
Eastern Cape,Buffalo City,Fezeka NU 3 Clinic,Clinic,MoH,-32.9319,27.7532,GPS,50643
Eastern Cape,Chris Hani,Fish River Clinic,Clinic,MoH,-31.9119,25.4159,GPS,50644
Eastern Cape,O.R.Tambo,Flagstaff Clinic,Clinic,MoH,-31.0803,29.4969,GPS,50645
Eastern Cape,Amathole,Fort Beaufort Gateway Clinic,Clinic,MoH,-32.7816,26.6348,GPS,50646
Eastern Cape,Amathole,Fort Beaufort Hospital,District Hospital,MoH,-32.7802,26.6336,GPS,50647
Eastern Cape,Buffalo City,Fort Grey Clinic,Clinic,MoH,-33.037,27.8032,GPS,50648
Eastern Cape,Amathole,Fort Malan Clinic,Clinic,MoH,-32.1513,28.5235,GPS,50649
Eastern Cape,Amathole,Frankfort Clinic,Clinic,MoH,-32.7202,27.4527,GPS,50650
Eastern Cape,Chris Hani,Fransbury Clinic,Clinic,MoH,-31.9642,27.0748,GPS,50651
Eastern Cape,Buffalo City,Frere Gateway Clinic,Clinic,MoH,-32.9971,27.8898,GPS,50652
Eastern Cape,Buffalo City,Frere Hospital,Provincial Tertiary Hospital,MoH,-32.9959,27.8916,GPS,50653
Eastern Cape,Chris Hani,Frontier Hospital,Regional Hospital,MoH,-31.8892,26.8713,GPS,50654
Eastern Cape,Chris Hani,Gardens Clinic,Clinic,MoH,-31.8949,26.8719,GPS,50655
Eastern Cape,Amathole,Gcaleka Clinic,Clinic,MoH,-32.3379,28.3199,GPS,50656
Eastern Cape,Nelson Mandela Bay,Gelvandale Clinic,Clinic,MoH,-33.9165,25.5491,GPS,50657
Eastern Cape,Amathole,Gilton Clinic,Clinic,MoH,-32.6618,26.9424,GPS,50658
Eastern Cape,Buffalo City,Ginsberg Clinic,Clinic,MoH,-32.8921,27.3855,GPS,50659
Eastern Cape,Chris Hani,Glen Grey Hospital,District Hospital,MoH,-31.7199,27.1994,GPS,50660
Eastern Cape,Amathole,Glenmore Clinic,Clinic,MoH,-33.1426,26.8584,GPS,50661
Eastern Cape,Buffalo City,Gompo A Ndende Clinic,Clinic,MoH,-33.0072,27.8762,GPS,50662
Eastern Cape,Buffalo City,Gompo B Jwayi Clinic,Clinic,MoH,-33.0167,27.8578,GPS,50663
Eastern Cape,Buffalo City,Gompo C Jabavu Clinic,Clinic,MoH,-33.0116,27.8639,GPS,50664
Eastern Cape,Buffalo City,Gonubie Clinic,Clinic,MoH,-32.9415,28.0219,GPS,50665
Eastern Cape,O.R.Tambo,Good Hope Clinic,Clinic,MoH,-31.3274,29.2602,GPS,50666
Eastern Cape,O.R.Tambo,Goso Forest Clinic,Clinic,MoH,-31.2331,29.3733,GPS,50667
Eastern Cape,Nelson Mandela Bay,Govan Mbeki Clinic,Clinic,MoH,-33.9481,25.6064,GPS,50668
Eastern Cape,Chris Hani,Gqaga Clinic,Clinic,MoH,-31.5541,28.2108,GPS,50669
Eastern Cape,Joe Gqabi,Gqaqhala Clinic,Clinic,MoH,-31.2828,28.3875,GPS,50670
Eastern Cape,Nelson Mandela Bay,Gqebera CHC,Community Health Centre,MoH,-33.9861,25.5889,GPS,50671
Eastern Cape,Chris Hani,Gqogqora Clinic,Clinic,MoH,-31.9805,27.8884,GPS,50672
Eastern Cape,O.R.Tambo,Gqubeni Clinic,Clinic,MoH,-31.5521,29.4587,GPS,50673
Eastern Cape,Amathole,Gqunqe Clinic,Clinic,MoH,-32.4688,28.5627,GPS,50674
Eastern Cape,Cacadu,Graaff-Reinet Day Hospital,Community Health Centre,MoH,-32.2728,24.5524,GPS,50675
Eastern Cape,Cacadu,Gracey Clinic,Clinic,MoH,-32.5787,25.1284,GPS,50676
Eastern Cape,Cacadu,Grahamstown Clinic,Clinic,MoH,-33.3116,26.5264,GPS,50677
Eastern Cape,Cacadu,Grahamstown FP Clinic,Clinic,MoH,-33.3116,26.5264,GPS,50678
Eastern Cape,Amathole,Grainvalley Clinic,Clinic,MoH,-32.2376,28.0486,GPS,50679
Eastern Cape,Buffalo City,Greenfields Clinic,Clinic,MoH,-33.0352,27.8641,GPS,50680
Eastern Cape,Alfred Nzo,Greenville Gateway Clinic,Clinic,MoH,-30.919,30.0995,GPS,50681
Eastern Cape,Alfred Nzo,Greenville Hospital,District Hospital,MoH,-30.9316,30.1089,GPS,50682
Eastern Cape,Buffalo City,Grey Gateway Clinic,Clinic,MoH,-32.8796,27.3958,GPS,50683
Eastern Cape,Buffalo City,Grey Hospital,District Hospital,MoH,-32.8793,27.3958,GPS,50684
Eastern Cape,Chris Hani,Guba Clinic,Clinic,MoH,-31.5354,27.2793,GPS,50685
Eastern Cape,Chris Hani,Gubenxa Clinic,Clinic,MoH,-31.7174,27.821,GPS,50686
Eastern Cape,O.R.Tambo,Gura Clinic,Clinic,MoH,-31.0266,28.8411,GPS,50687
Eastern Cape,Nelson Mandela Bay,Gustav Lamour Clinic,Clinic,MoH,-33.8159,25.4639,GPS,50688
Eastern Cape,Amathole,Gwabeni Clinic,Clinic,MoH,-33.0961,26.9619,GPS,50689
Eastern Cape,Amathole,Gwadana Clinic,Clinic,MoH,-32.1429,28.2889,GPS,50690
Eastern Cape,Amathole,Gwadu Clinic,Clinic,MoH,-32.2203,28.6677,GPS,50691
Eastern Cape,Chris Hani,Gwatyu Clinic,Clinic,MoH,-32.0169,27.3156,GPS,50692
Eastern Cape,Amathole,Gxulu Clinic,Clinic,MoH,-32.6452,27.1099,GPS,50693
Eastern Cape,Amathole,Gxwederha Clinic,Clinic,MoH,-32.8416,26.7865,GPS,50694
Eastern Cape,Chris Hani,Hackney Clinic,Clinic,MoH,-32.3144,26.6452,GPS,50695
Eastern Cape,Amathole,Hamburg Clinic,Clinic,MoH,-33.2905,27.4733,GPS,50696
Eastern Cape,Chris Hani,Haytor Clinic,Clinic,MoH,-32.2942,26.7705,GPS,50697
Eastern Cape,Amathole,Healdtown Clinic,Clinic,MoH,-32.7315,26.7015,GPS,50698
Eastern Cape,Amathole,Hebe-Hebe Clinic,Clinic,MoH,-32.236,27.8303,GPS,50699
Eastern Cape,Nelson Mandela Bay,Helenvale Clinic,Clinic,MoH,-33.9113,25.5513,GPS,50700
Eastern Cape,Joe Gqabi,Herschel Clinic,Clinic,MoH,-30.6147,27.1644,GPS,50701
Eastern Cape,Chris Hani,Hewu Hospital,District Hospital,MoH,-32.1727,26.8052,GPS,50702
Eastern Cape,Chris Hani,High Street Clinic,Clinic,MoH,-32.1686,25.6162,GPS,50703
Eastern Cape,Amathole,Highview Clinic,Clinic,MoH,-32.4351,27.9467,GPS,50704
Eastern Cape,Amathole,Hillside Clinic Nkonkobe,Clinic,MoH,-32.7522,26.6398,GPS,50705
Eastern Cape,Joe Gqabi,Hillside Clinic Senqu,Clinic,MoH,-30.561,27.5642,GPS,50706
Eastern Cape,Joe Gqabi,Hilton Clinic,Clinic,MoH,-30.6971,26.7019,GPS,50707
Eastern Cape,O.R.Tambo,Hlabatshane Clinic,Clinic,MoH,-31.7449,28.8566,GPS,50708
Eastern Cape,Chris Hani,Hlala Uphilile Clinic,Clinic,MoH,-31.381,27.0367,GPS,50709
Eastern Cape,Alfred Nzo,Hlamandana Clinic,Clinic,MoH,-30.8176,29.7201,GPS,50710
Eastern Cape,Joe Gqabi,Hlangalane Clinic,Clinic,MoH,-30.9586,28.5504,GPS,50711
Eastern Cape,Joe Gqabi,Hlankomo Clinic,Clinic,MoH,-30.9303,28.4191,GPS,50712
Eastern Cape,Joe Gqabi,Hlomendlini Clinic,Clinic,MoH,-30.5858,27.2632,GPS,50713
Eastern Cape,Amathole,Hobeni Clinic,Clinic,MoH,-32.175,28.8757,GPS,50714
Eastern Cape,Chris Hani,Hofmeyer Clinic,Clinic,MoH,-31.6558,25.804,GPS,50715
Eastern Cape,O.R.Tambo,Holy Cross Gateway Clinic,Clinic,MoH,-31.0812,29.4954,GPS,50716
Eastern Cape,O.R.Tambo,Holy Cross Hospital,District Hospital,MoH,-31.0812,29.4953,GPS,50717
Eastern Cape,Cacadu,Horseshoe Clinic,Clinic,MoH,-32.2607,24.5363,GPS,50718
Eastern Cape,Amathole,Horton Clinic,Clinic,MoH,-33.1127,27.0216,GPS,50719
Eastern Cape,Chris Hani,Hukuwa Clinic,Clinic,MoH,-32.1554,26.647,GPS,50720
Eastern Cape,Cacadu,Humansdorp Clinic,Clinic,MoH,-34.0322,24.7684,GPS,50721
Eastern Cape,Cacadu,Humansdorp Hospital,District Hospital,MoH,-34.0302,24.7814,GPS,50722
Eastern Cape,Amathole,Ibika Clinic,Clinic,MoH,-32.2835,28.2205,GPS,50723
Eastern Cape,Amathole,Idutywa Nqabara Clinic,Clinic,MoH,-32.1009,28.4538,GPS,50724
Eastern Cape,Amathole,Idutywa Village CHC,Community Health Centre,MoH,-32.097,28.2991,GPS,50725
Eastern Cape,Nelson Mandela Bay,Ikamvelihle Clinic,Clinic,MoH,-33.7932,25.613,GPS,50726
Eastern Cape,Chris Hani,Ilinge Clinic,Clinic,MoH,-31.9773,27.0402,GPS,50727
Eastern Cape,Buffalo City,Ilita Clinic,Clinic,MoH,-32.8899,27.5338,GPS,50728
Eastern Cape,Buffalo City,Imidange Clinic,Clinic,MoH,-32.7796,27.487,GPS,50729
Eastern Cape,Cacadu,Imizamo Yetho Clinic,Clinic,MoH,-33.743,24.7974,GPS,50730
Eastern Cape,Alfred Nzo,Imizizi Clinic,Clinic,MoH,-30.9089,29.9708,GPS,50731
Eastern Cape,Chris Hani,Indwe Hospital,District Hospital,MoH,-31.4683,27.3404,GPS,50732
Eastern Cape,Alfred Nzo,Isikelo Clinic,Clinic,MoH,-30.7866,29.7679,GPS,50733
Eastern Cape,Chris Hani,Isikhoba Clinic,Clinic,MoH,-32.0098,27.5823,GPS,50734
Eastern Cape,O.R.Tambo,Isilimela Gateway Clinic,Clinic,MoH,-31.7341,29.3589,GPS,50735
Eastern Cape,O.R.Tambo,Isilimela Hospital,District Hospital,MoH,-31.7342,29.3589,GPS,50736
Eastern Cape,Alfred Nzo,Isilindini Clinic,Clinic,MoH,-30.62,28.5908,GPS,50737
Eastern Cape,Nelson Mandela Bay,Isolomzi Clinic,Clinic,MoH,-33.8256,25.3754,GPS,50738
Eastern Cape,Buffalo City,Jafta Clinic,Clinic,MoH,-32.7988,27.3108,GPS,50739
Eastern Cape,Amathole,Jaji Clinic,Clinic,MoH,-33.3514,27.1132,GPS,50740
Eastern Cape,O.R.Tambo,Jalamba Clinic,Clinic,MoH,-32.0169,28.7392,GPS,50741
Eastern Cape,Amathole,Jama Clinic,Clinic,MoH,-33.3769,27.0937,GPS,50742
Eastern Cape,Joe Gqabi,Jamestown Clinic,Clinic,MoH,-31.0868,26.8445,GPS,50743
Eastern Cape,Joe Gqabi,Jamestown Hospital,District Hospital,MoH,-31.1236,26.8074,GPS,50744
Eastern Cape,Amathole,Jingqi Clinic,Clinic,MoH,-32.3331,28.6578,GPS,50745
Eastern Cape,Nelson Mandela Bay,Joe Slovo Clinic,Clinic,MoH,-33.825,25.5027,GPS,50746
Eastern Cape,Buffalo City,John Dube Clinic,Clinic,MoH,-32.9913,27.8164,GPS,50747
Eastern Cape,Cacadu,Joubertina CHC,Community Health Centre,MoH,-33.8263,23.8647,GPS,50748
Eastern Cape,Cacadu,Joza Clinic,Clinic,MoH,-33.2917,26.5603,GPS,50749
Eastern Cape,O.R.Tambo,Kalankomo Clinic,Clinic,MoH,-30.9436,28.7108,GPS,50750
Eastern Cape,Chris Hani,Kamastone Clinic,Clinic,MoH,-32.0695,26.6487,GPS,50751
Eastern Cape,O.R.Tambo,Kambi Clinic,Clinic,MoH,-31.4929,28.6617,GPS,50752
Eastern Cape,Alfred Nzo,Kanyayo  Clinic Bizana,Clinic,MoH,-31.0792,29.8004,GPS,50753
Eastern Cape,Cacadu,Kareedouw Clinic,Clinic,MoH,-33.9524,24.306,GPS,50754
Eastern Cape,Amathole,Kati-Kati Clinic,Clinic,MoH,-32.2882,27.1571,GPS,50755
Eastern Cape,Joe Gqabi,Katkop Clinic,Clinic,MoH,-30.8977,28.5494,GPS,50756
Eastern Cape,Chris Hani,KB Siswana Clinic,Clinic,MoH,-31.5592,26.5493,GPS,50757
Eastern Cape,Cacadu,Kenton-On-Sea Clinic,Clinic,MoH,-33.6762,26.6663,GPS,50758
Eastern Cape,Amathole,Keti Clinic,Clinic,MoH,-32.0421,28.1156,GPS,50759
Eastern Cape,Nelson Mandela Bay,Khanya Clinic,Clinic,MoH,-33.8653,25.575,GPS,50760
Eastern Cape,O.R.Tambo,Khanyayo Clinic Holy Cross,Clinic,MoH,-31.1938,29.8454,GPS,50761
Eastern Cape,Joe Gqabi,Khayamnandi Clinic,Clinic,MoH,-31.2817,25.8121,GPS,50762
Eastern Cape,Chris Hani,Khuze Clinic,Clinic,MoH,-32.2127,27.6278,GPS,50763
Eastern Cape,Cacadu,Kirkwood Clinic,Clinic,MoH,-33.4006,25.4429,GPS,50764
Eastern Cape,Chris Hani,Kleinbulhoek Clinic,Clinic,MoH,-32.1,26.5602,GPS,50765
Eastern Cape,O.R.Tambo,Kohlo Clinic,Clinic,MoH,-31.5701,29.4075,GPS,50766
Eastern Cape,Amathole,Kolomana Clinic,Clinic,MoH,-32.4255,26.7888,GPS,50767
Eastern Cape,Amathole,Komga Clinic,Clinic,MoH,-32.5817,27.8855,GPS,50768
Eastern Cape,Amathole,Komga Hospital,District Hospital,MoH,-32.576,27.8958,GPS,50769
Eastern Cape,Amathole,Komga Rural Clinic,Clinic,MoH,-32.663,27.8925,GPS,50770
Eastern Cape,Amathole,Komga Town Clinic,Clinic,MoH,-32.587,27.8849,GPS,50771
Eastern Cape,Nelson Mandela Bay,Korsten CHC,Community Health Centre,MoH,-33.9251,25.5707,GPS,50772
Eastern Cape,Amathole,Kotana Clinic,Clinic,MoH,-32.1487,28.1465,GPS,50773
Eastern Cape,Amathole,Kotyana Clinic,Clinic,MoH,-32.0437,28.9994,GPS,50774
Eastern Cape,Cacadu,Krakeel Clinic,Clinic,MoH,-33.8143,23.7277,GPS,50775
Eastern Cape,Cacadu,Kroonvale Clinic,Clinic,MoH,-32.2392,24.5403,GPS,50776
Eastern Cape,Cacadu,Kruisfontein Clinic,Clinic,MoH,-34.0224,24.7463,GPS,50777
Eastern Cape,Nelson Mandela Bay,Kruisrivier Clinic,Clinic,MoH,-33.7668,25.3484,GPS,50778
Eastern Cape,O.R.Tambo,KTC clinic,Clinic,MoH,-31.2082,29.799,GPS,50779
Eastern Cape,Chris Hani,Ku Bengu Clinic,Clinic,MoH,-32.1434,27.6173,GPS,50780
Eastern Cape,Amathole,Kubusi Clinic,Clinic,MoH,-32.5943,27.4129,GPS,50781
Eastern Cape,Joe Gqabi,Kungisizwe Clinic,Clinic,MoH,-30.8285,28.6049,GPS,50782
Eastern Cape,Chris Hani,Kuyasa CHC,Community Health Centre,MoH,-32.0071,27.5825,GPS,50783
Eastern Cape,Nelson Mandela Bay,Kwadwesi Clinic,Clinic,MoH,-33.8481,25.5188,GPS,50784
Eastern Cape,Nelson Mandela Bay,Kwamagxaki Clinic,Clinic,MoH,-33.8402,25.5335,GPS,50785
Eastern Cape,Amathole,Kwa-Mkholoza Clinic,Clinic,MoH,-32.3206,28.595,GPS,50786
Eastern Cape,Cacadu,Kwa-Nonqubela Clinic,Clinic,MoH,-33.6568,26.4204,GPS,50787
Eastern Cape,Chris Hani,Kwanonzame New Clinic,Clinic,MoH,-31.5166,24.9994,GPS,50788
Eastern Cape,Chris Hani,Kwanonzame Old Clinic,Clinic,MoH,-31.5167,25.0091,GPS,50789
Eastern Cape,Cacadu,Kwa-Nonzwakazi Clinic,Clinic,MoH,-33.3173,26.0908,GPS,50790
Eastern Cape,Nelson Mandela Bay,Kwazakhele CHC,Community Health Centre,MoH,-33.8775,25.5861,GPS,50791
Eastern Cape,Nelson Mandela Bay,Kwazakhele Clinic,Clinic,MoH,-33.8809,25.5917,GPS,50792
Eastern Cape,Cacadu,Kwazamukucinga Clinic,Clinic,MoH,-32.9428,24.6779,GPS,50793
Eastern Cape,Cacadu,Kwazenzele Clinic,Clinic,MoH,-33.4392,25.9743,GPS,50794
Eastern Cape,Buffalo City,Kwelera Clinic,Clinic,MoH,-32.8234,27.9628,GPS,50795
Eastern Cape,Joe Gqabi,Lady Grey Hospital,District Hospital,MoH,-30.7128,27.2119,GPS,50796
Eastern Cape,Nelson Mandela Bay,Laetitia Bam CHC,Community Health Centre,MoH,-33.808,25.3983,GPS,50797
Eastern Cape,Chris Hani,Lahlangubo Clinic Ngcobo,Clinic,MoH,-31.6614,27.8667,GPS,50798
Eastern Cape,Chris Hani,Lahlangubo Clinic Queenstown,Clinic,MoH,-32.2013,26.6951,GPS,50799
Eastern Cape,O.R.Tambo,Langeni Clinic,Clinic,MoH,-31.4086,28.5419,GPS,50800
Eastern Cape,Chris Hani,Lanti Clinic,Clinic,MoH,-31.867,27.359,GPS,50801
Eastern Cape,Amathole,Lenye Clinic,Clinic,MoH,-32.7494,27.0857,GPS,50802
Eastern Cape,Chris Hani,Lesseyton Clinic,Clinic,MoH,-31.8424,26.7773,GPS,50803
Eastern Cape,O.R.Tambo,Libode Clinic,Clinic,MoH,-31.545,29.0167,GPS,50804
Eastern Cape,Alfred Nzo,Likhetlane Clinic,Clinic,MoH,-30.357,28.5262,GPS,50805
Eastern Cape,Chris Hani,Lingelihle Clinic,Clinic,MoH,-32.1806,25.6292,GPS,50806
Eastern Cape,Nelson Mandela Bay,Linton Grange Clinic,Clinic,MoH,-33.9434,25.5155,GPS,50807
Eastern Cape,Nelson Mandela Bay,Livingstone Hospital,Provincial Tertiary Hospital,MoH,-33.9251,25.5707,GPS,50808
Eastern Cape,Nelson Mandela Bay,Livingstone Paediatric Unit,Clinic,MoH,-33.9251,25.5707,GPS,50809
Eastern Cape,Chris Hani,Lizo Ngcana Clinic,Clinic,MoH,-31.9216,26.8633,GPS,50810
Eastern Cape,Cacadu,Loerie Clinic,Clinic,MoH,-33.8641,25.0257,GPS,50811
Eastern Cape,Amathole,Lota Clinic,Clinic,MoH,-31.8632,28.3363,GPS,50812
Eastern Cape,O.R.Tambo,Lotana Clinic,Clinic,MoH,-31.2826,28.9165,GPS,50813
Eastern Cape,Cacadu,Lotusville Clinic,Clinic,MoH,-32.4723,24.0403,GPS,50814
Eastern Cape,Cacadu,Louterwater Clinic,Clinic,MoH,-33.7899,23.6311,GPS,50815
Eastern Cape,O.R.Tambo,Lower Gungululu Clinic,Clinic,MoH,-31.4628,28.8219,GPS,50816
Eastern Cape,Chris Hani,Lower Mncuncuzo Clinic,Clinic,MoH,-31.9083,27.5978,GPS,50817
Eastern Cape,Amathole,Lower Regu Clinic,Clinic,MoH,-32.8181,26.9525,GPS,50818
Eastern Cape,Chris Hani,Lower Seplan Clinic,Clinic,MoH,-31.7127,27.4433,GPS,50819
Eastern Cape,Joe Gqabi,Lower Tsitsana Clinic,Clinic,MoH,-30.526,28.208,GPS,50820
Eastern Cape,Amathole,Lower Zingcuka Clinic,Clinic,MoH,-32.7191,27.0988,GPS,50821
Eastern Cape,Alfred Nzo,Lubaleko Clinic,Clinic,MoH,-30.6949,29.367,GPS,50822
Eastern Cape,Chris Hani,Lubisi Clinic,Clinic,MoH,-31.7989,27.4602,GPS,50823
Eastern Cape,O.R.Tambo,Ludalasi Clinic,Clinic,MoH,-31.6302,29.3268,GPS,50824
Eastern Cape,Alfred Nzo,Lugangeni Clinic,Clinic,MoH,-30.8333,28.9344,GPS,50825
Eastern Cape,O.R.Tambo,Lujizweni Clinic,Clinic,MoH,-31.7699,29.0179,GPS,50826
Eastern Cape,Cacadu,Lukhanyiso Clinic,Clinic,MoH,-33.5223,25.7104,GPS,50827
Eastern Cape,Nelson Mandela Bay,Lukhanyo Clinic,Clinic,MoH,-33.8171,25.4555,GPS,50828
Eastern Cape,Amathole,Lulama Kama Clinic,Clinic,MoH,-32.7686,26.655,GPS,50829
Eastern Cape,Nelson Mandela Bay,Lunga Kobese Clinic,Clinic,MoH,-33.8857,25.5808,GPS,50830
Eastern Cape,O.R.Tambo,Lusikisiki Village Clinic Qaukeni,Clinic,MoH,-31.3741,29.5723,GPS,50831
Eastern Cape,Chris Hani,Luthuli Clinic,Clinic,MoH,-32.1199,27.7392,GPS,50832
Eastern Cape,O.R.Tambo,Lutshaya Clinic,Clinic,MoH,-31.3227,29.3606,GPS,50833
Eastern Cape,O.R.Tambo,Lutubeni Clinic,Clinic,MoH,-31.9256,28.8826,GPS,50834
Eastern Cape,Alfred Nzo,Luyengweni Clinic,Clinic,MoH,-30.6528,28.7694,GPS,50835
Eastern Cape,Buffalo City,Luyolo NU 9 Clinic,Clinic,MoH,-32.9257,27.7339,GPS,50836
Eastern Cape,O.R.Tambo,Lwandile Clinic,Clinic,MoH,-31.8671,29.2088,GPS,50837
Eastern Cape,Nelson Mandela Bay,Mabandla Clinic,Clinic,MoH,-33.8096,25.3786,GPS,50838
Eastern Cape,Joe Gqabi,Macacuma Clinic,Clinic,MoH,-30.4574,27.353,GPS,50839
Eastern Cape,Alfred Nzo,Machibini Clinic Kwabhaca,Clinic,MoH,-30.7267,28.7171,GPS,50840
Eastern Cape,Chris Hani,Machibini Clinic Queenstown,Clinic,MoH,-31.9205,27.0244,GPS,50841
Eastern Cape,Chris Hani,Machubeni Clinic,Clinic,MoH,-31.5598,27.1893,GPS,50842
Eastern Cape,Amathole,Macibe Clinic,Clinic,MoH,-32.478,28.2855,GPS,50843
Eastern Cape,Chris Hani,Mackay's Nek Satellite Clinic,Satellite Clinic,MoH,-31.765,27.1144,GPS,50844
Eastern Cape,Joe Gqabi,Maclear Clinic,Clinic,MoH,-31.0688,28.3516,GPS,50845
Eastern Cape,Joe Gqabi,Maclear Hospital,District Hospital,MoH,-31.0759,28.3478,GPS,50846
Eastern Cape,Alfred Nzo,Madlangala Clinic,Clinic,MoH,-30.1815,28.5769,GPS,50847
Eastern Cape,Amathole,Madwaleni Hospital,District Hospital,MoH,-32.0958,28.8788,GPS,50848
Eastern Cape,Alfred Nzo,Madzikane kaZulu Memorial Hospital,District Hospital,MoH,-30.9009,28.9956,GPS,50849
Eastern Cape,Alfred Nzo,Magadla Clinic,Clinic,MoH,-30.338,28.6825,GPS,50850
Eastern Cape,O.R.Tambo,Magwa Clinic,Clinic,MoH,-31.4184,29.6713,GPS,50851
Eastern Cape,Chris Hani,Magwala Clinic,Clinic,MoH,-32.0069,27.5498,GPS,50852
Eastern Cape,Amathole,Mahasana Clinic,Clinic,MoH,-32.3383,28.7344,GPS,50853
Eastern Cape,Chris Hani,Mahlubini Clinic,Clinic,MoH,-32.0226,27.6103,GPS,50854
Eastern Cape,O.R.Tambo,Mahlungulu Clinic KSD,Clinic,MoH,-31.5726,28.4929,GPS,50855
Eastern Cape,O.R.Tambo,Mahlungulu Clinic Mhlontlo,Clinic,MoH,-31.0568,28.8024,GPS,50856
Eastern Cape,O.R.Tambo,Majola Clinic,Clinic,MoH,-31.4977,29.3188,GPS,50857
Eastern Cape,O.R.Tambo,Makhotyana CHC,Community Health Centre,MoH,-31.435,29.0229,GPS,50858
Eastern Cape,Alfred Nzo,Makwantini Clinic,Clinic,MoH,-31.1059,29.9903,GPS,50859
Eastern Cape,Nelson Mandela Bay,Malabar Satellite Clinic,Satellite Clinic,MoH,-33.9213,25.5327,GPS,50860
Eastern Cape,O.R.Tambo,Malangeni Clinic,Clinic,MoH,-31.3019,29.7014,GPS,50861
Eastern Cape,Joe Gqabi,Maletswai Clinic,Clinic,MoH,-30.6907,26.6986,GPS,50862
Eastern Cape,Alfred Nzo,Malongwana Clinic,Clinic,MoH,-31.0081,29.3636,GPS,50863
Eastern Cape,O.R.Tambo,Malusi Clinic,Clinic,MoH,-31.5771,28.8706,GPS,50864
Eastern Cape,Alfred Nzo,Maluti CHC,Community Health Centre,MoH,-30.2658,28.7889,GPS,50865
Eastern Cape,O.R.Tambo,Mampondomiseni Clinic,Clinic,MoH,-31.6345,29.0906,GPS,50866
Eastern Cape,O.R.Tambo,Mangcwanguleni Clinic,Clinic,MoH,-31.3343,29.1688,GPS,50867
Eastern Cape,Joe Gqabi,Mangoloaneng Clinic,Clinic,MoH,-30.5157,28.4606,GPS,50868
Eastern Cape,Alfred Nzo,Mangqamzeni Clinic,Clinic,MoH,-30.9934,29.0786,GPS,50869
Eastern Cape,O.R.Tambo,Mantlaneni Clinic,Clinic,MoH,-31.2338,29.3425,GPS,50870
Eastern Cape,O.R.Tambo,Mantusini Clinic,Clinic,MoH,-31.5752,29.294,GPS,50871
Eastern Cape,Chris Hani,Manzana Clinic,Clinic,MoH,-31.7374,28.0088,GPS,50872
Eastern Cape,Chris Hani,Manzimahle Clinic,Clinic,MoH,-31.6246,27.5565,GPS,50873
Eastern Cape,Alfred Nzo,Mapheleni Clinic,Clinic,MoH,-30.7844,29.2539,GPS,50874
Eastern Cape,O.R.Tambo,Mapuzi Clinic,Clinic,MoH,-31.9593,29.1304,GPS,50875
Eastern Cape,O.R.Tambo,Maqanyeni Clinic,Clinic,MoH,-31.6422,28.9731,GPS,50876
Eastern Cape,Chris Hani,Maqashu Clinic,Clinic,MoH,-31.7437,27.335,GPS,50877
Eastern Cape,Cacadu,Market Square Clinic,Clinic,MoH,-32.2503,24.5387,GPS,50878
Eastern Cape,Cacadu,Marselle Clinic,Clinic,MoH,-33.6793,26.6351,GPS,50879
Eastern Cape,Chris Hani,Martje Venter Hospital Tarkastad,District Hospital,MoH,-32.0089,26.2588,GPS,50880
Eastern Cape,Cacadu,Masakhane Clinic Aberdeen,Clinic,MoH,-32.4727,24.0525,GPS,50881
Eastern Cape,Cacadu,Masakhane Clinic Hankey,Clinic,MoH,-33.8277,24.8731,GPS,50882
Eastern Cape,Nelson Mandela Bay,Masakhane Clinic N Mandela Metro,Clinic,MoH,-33.9216,25.4452,GPS,50883
Eastern Cape,Buffalo City,Masakhane Clinic Zwelitsha,Clinic,MoH,-32.9256,27.4325,GPS,50884
Eastern Cape,Chris Hani,Masakhe Clinic,Clinic,MoH,-31.5544,26.5601,GPS,50885
Eastern Cape,Buffalo City,Masele Clinic,Clinic,MoH,-32.9359,27.3307,GPS,50886
Eastern Cape,Joe Gqabi,Masibulele Clinic,Clinic,MoH,-30.3592,27.4413,GPS,50887
Eastern Cape,Amathole,Masincedane Clinic,Clinic,MoH,-32.6859,27.1136,GPS,50888
Eastern Cape,Buffalo City,Masiphile Clinic,Clinic,MoH,-32.8543,27.7891,GPS,50889
Eastern Cape,Alfred Nzo,Matatiele Community Clinic,Clinic,MoH,-30.3343,28.8146,GPS,50890
Eastern Cape,Amathole,Matomela Clinic,Clinic,MoH,-33.2758,27.1141,GPS,50891
Eastern Cape,Alfred Nzo,Matubeni Clinic,Clinic,MoH,-30.9651,29.1611,GPS,50892
Eastern Cape,Chris Hani,Matyantya Clinic,Clinic,MoH,-31.7855,27.0718,GPS,50893
Eastern Cape,Chris Hani,Mawusheni Clinic,Clinic,MoH,-31.9406,27.6702,GPS,50894
Eastern Cape,Nelson Mandela Bay,Max Madlingozi Clinic,Clinic,MoH,-33.8697,25.583,GPS,50895
Eastern Cape,O.R.Tambo,Maxwele Clinic,Clinic,MoH,-31.7045,28.7347,GPS,50896
Eastern Cape,O.R.Tambo,Mbadango Clinic,Clinic,MoH,-31.1114,29.6096,GPS,50897
Eastern Cape,O.R.Tambo,Mbalisweni Clinic,Clinic,MoH,-31.2684,29.1153,GPS,50898
Eastern Cape,O.R.Tambo,Mbekweni CHC,Community Health Centre,MoH,-31.7201,28.6865,GPS,50899
Eastern Cape,O.R.Tambo,Mbokotwana Clinic,Clinic,MoH,-31.2503,28.8066,GPS,50900
Eastern Cape,O.R.Tambo,Mbotyi Clinic,Clinic,MoH,-31.4672,29.7296,GPS,50901
Eastern Cape,Chris Hani,Mbulukweza Clinic,Clinic,MoH,-32.2326,27.7169,GPS,50902
Eastern Cape,Chris Hani,Mcambalala Clinic,Clinic,MoH,-31.8841,27.4944,GPS,50903
Eastern Cape,Chris Hani,Mcewula Clinic,Clinic,MoH,-31.5121,27.5284,GPS,50904
Eastern Cape,Chris Hani,Mdanjelwa Clinic,Clinic,MoH,-31.8007,28.2185,GPS,50905
Eastern Cape,O.R.Tambo,Mdeni Clinic,Clinic,MoH,-31.0344,28.7794,GPS,50906
Eastern Cape,Buffalo City,Mdingi Clinic,Clinic,MoH,-32.8237,27.3297,GPS,50907
Eastern Cape,O.R.Tambo,Mdyobe Clinic,Clinic,MoH,-31.1325,29.0504,GPS,50908
Eastern Cape,Alfred Nzo,Meje Clinic,Clinic,MoH,-31.0502,29.8747,GPS,50909
Eastern Cape,Amathole,Melani Clinic,Clinic,MoH,-32.7254,26.8739,GPS,50910
Eastern Cape,Amathole,Melitafa Clinic,Clinic,MoH,-32.0714,28.6807,GPS,50911
Eastern Cape,O.R.Tambo,Mevana Clinic,Clinic,MoH,-31.528,29.2961,GPS,50912
Eastern Cape,Alfred Nzo,Mfundambini Clinic,Clinic,MoH,-30.8993,29.6665,GPS,50913
Eastern Cape,Alfred Nzo,Mfundisweni Clinic,Clinic,MoH,-30.8983,29.52,GPS,50914
Eastern Cape,Amathole,Mgcwe Clinic,Clinic,MoH,-32.1396,28.2022,GPS,50915
Eastern Cape,Chris Hani,Mgudu Clinic,Clinic,MoH,-31.4783,28.3469,GPS,50916
Eastern Cape,Amathole,Mgwalana Clinic,Clinic,MoH,-32.7551,26.962,GPS,50917
Eastern Cape,Amathole,Mgwali Clinic,Clinic,MoH,-32.4611,27.6056,GPS,50918
Eastern Cape,O.R.Tambo,Mgwenyane Clinic,Clinic,MoH,-31.5554,29.2333,GPS,50919
Eastern Cape,O.R.Tambo,Mhlahlane Clinic,Clinic,MoH,-31.4184,28.541,GPS,50920
Eastern Cape,O.R.Tambo,Mhlakulo CHC,Community Health Centre,MoH,-31.4021,28.8441,GPS,50921
Eastern Cape,Chris Hani,Mhlanga Clinic,Clinic,MoH,-31.4638,27.1611,GPS,50922
Eastern Cape,Chris Hani,Mhlopekazi Clinic,Clinic,MoH,-31.7368,28.2692,GPS,50923
Eastern Cape,Alfred Nzo,Mhlotsheni Clinic,Clinic,MoH,-30.8027,29.0909,GPS,50924
Eastern Cape,Chris Hani,Mhlwazi Clinic,Clinic,MoH,-31.5137,27.9884,GPS,50925
Eastern Cape,Chris Hani,Michausdal Clinic,Clinic,MoH,-32.1736,25.645,GPS,50926
Eastern Cape,Chris Hani,Middelburg Clinic,Clinic,MoH,-31.4952,25.0079,GPS,50927
Eastern Cape,Nelson Mandela Bay,Middle Street Clinic,Clinic,MoH,-33.7577,25.3911,GPS,50928
Eastern Cape,Cacadu,Middle Terrace Clinic,Clinic,MoH,-33.3003,26.5365,GPS,50929
Eastern Cape,Cacadu,Middle Terrace Satellite Clinic,Satellite Clinic,MoH,-33.3004,26.5367,GPS,50930
Eastern Cape,Cacadu,Middle Terrace TLC Clinic,Clinic,MoH,-33.3004,26.5367,GPS,50931
Eastern Cape,Amathole,Middledrift CHC,Community Health Centre,MoH,-32.8135,26.9883,GPS,50932
Eastern Cape,Cacadu,Midland Hospital,District Hospital,MoH,-32.2608,24.5362,GPS,50933
Eastern Cape,Chris Hani,Midros Clinic,Clinic,MoH,-31.5029,25.0264,GPS,50934
Eastern Cape,Cacadu,Misgund Clinic,Clinic,MoH,-33.7631,23.5024,GPS,50935
Eastern Cape,Nelson Mandela Bay,Missionvale Clinic,Clinic,MoH,-33.8767,25.55,GPS,50936
Eastern Cape,Chris Hani,Mitford Clinic,Clinic,MoH,-31.9895,26.5305,GPS,50937
Eastern Cape,Chris Hani,Mjanyana Clinic,Clinic,MoH,-31.8323,28.1061,GPS,50938
Eastern Cape,Chris Hani,Mjanyana Hospital,District Hospital,MoH,-31.836,28.1038,GPS,50939
Eastern Cape,O.R.Tambo,Mjika Clinic,Clinic,MoH,-31.4364,28.61,GPS,50940
Eastern Cape,O.R.Tambo,Mkambathi Clinic,Clinic,MoH,-31.2907,29.949,GPS,50941
Eastern Cape,Amathole,Mkanyisi Clinic,Clinic,MoH,-32.5875,27.8858,GPS,50942
Eastern Cape,Chris Hani,Mkapusi Clinic,Clinic,MoH,-31.5951,27.1071,GPS,50943
Eastern Cape,Alfred Nzo,Mkemane Clinic,Clinic,MoH,-30.668,29.0186,GPS,50944
Eastern Cape,Alfred Nzo,Mnceba Clinic,Clinic,MoH,-30.8947,29.2121,GPS,50945
Eastern Cape,Buffalo City,Mncotsho Clinic,Clinic,MoH,-32.9351,27.5998,GPS,50946
Eastern Cape,Alfred Nzo,Mngungu Clinic,Clinic,MoH,-31.0562,30.0321,GPS,50947
Eastern Cape,Alfred Nzo,Mntwana Clinic,Clinic,MoH,-30.9767,28.9237,GPS,50948
Eastern Cape,Amathole,Mnyibashe Clinic,Clinic,MoH,-32.1293,27.8042,GPS,50949
Eastern Cape,Chris Hani,Mnyolo Clinic,Clinic,MoH,-31.4945,28.2883,GPS,50950
Eastern Cape,Chris Hani,Molteno Clinic,Clinic,MoH,-31.3959,26.3605,GPS,50951
Eastern Cape,Chris Hani,Molteno Hospital,District Hospital,MoH,-31.3916,26.3555,GPS,50952
Eastern Cape,Amathole,Mooiplaas Clinic,Clinic,MoH,-32.7376,28.0541,GPS,50953
Eastern Cape,Buffalo City,Moore Street Clinic,Clinic,MoH,-33.0128,27.9155,GPS,50954
Eastern Cape,Cacadu,Moses Mabida Clinic,Clinic,MoH,-33.3973,25.4808,GPS,50955
Eastern Cape,Nelson Mandela Bay,Motherwell CHC,Community Health Centre,MoH,-33.8118,25.5979,GPS,50956
Eastern Cape,Nelson Mandela Bay,Motherwell NU 11 Clinic,Clinic,MoH,-33.7833,25.5896,GPS,50957
Eastern Cape,Nelson Mandela Bay,Motherwell NU 2 Clinic,Clinic,MoH,-33.8006,25.6032,GPS,50958
Eastern Cape,Nelson Mandela Bay,Motherwell NU 8 Clinic,Clinic,MoH,-33.8003,25.5898,GPS,50959
Eastern Cape,Chris Hani,Mount Arthur Clinic,Clinic,MoH,-31.6864,27.1536,GPS,50960
Eastern Cape,Alfred Nzo,Mount Ayliff Gateway Clinic,Clinic,MoH,-30.8051,29.3597,GPS,50961
Eastern Cape,Alfred Nzo,Mount Ayliff Hospital,District Hospital,MoH,-30.8052,29.3596,GPS,50962
Eastern Cape,Buffalo City,Mount Coke CHC,Community Health Centre,MoH,-32.9804,27.4425,GPS,50963
Eastern Cape,Alfred Nzo,Mount Frere Gateway Clinic,Clinic,MoH,-30.9009,28.9956,GPS,50964
Eastern Cape,Alfred Nzo,Mount Hargreaves Clinic,Clinic,MoH,-30.406,28.7066,GPS,50965
Eastern Cape,Amathole,Mpame Clinic,Clinic,MoH,-32.0979,29.0418,GPS,50966
Eastern Cape,O.R.Tambo,Mpeko Clinic,Clinic,MoH,-31.6236,28.6333,GPS,50967
Eastern Cape,Alfred Nzo,Mpetsheni Clinic,Clinic,MoH,-30.9955,29.8019,GPS,50968
Eastern Cape,Alfred Nzo,Mpharane Clinic,Clinic,MoH,-30.2639,28.4776,GPS,50969
Eastern Cape,O.R.Tambo,Mpindweni Clinic,Clinic,MoH,-31.5117,28.7812,GPS,50970
Eastern Cape,Buffalo City,Mpongo Clinic,Clinic,MoH,-33.1576,27.5263,GPS,50971
Eastern Cape,O.R.Tambo,Mpoza Clinic Lusikisiki,Clinic,MoH,-31.2363,29.5572,GPS,50972
Eastern Cape,Alfred Nzo,Mpoza Clinic Mount Frere,Clinic,MoH,-30.7318,29.0693,GPS,50973
Eastern Cape,Amathole,Mpozolo Clinic,Clinic,MoH,-32.1816,28.7791,GPS,50974
Eastern Cape,Amathole,Mpukane Clinic,Clinic,MoH,-32.331,27.8747,GPS,50975
Eastern Cape,O.R.Tambo,Mpunzana Clinic,Clinic,MoH,-31.8038,28.6674,GPS,50976
Eastern Cape,Amathole,Mqambeli Clinic,Clinic,MoH,-32.4203,28.1082,GPS,50977
Eastern Cape,O.R.Tambo,Mqanduli CHC,Community Health Centre,MoH,-31.8235,28.765,GPS,50978
Eastern Cape,O.R.Tambo,Mqhekezweni Clinic,Clinic,MoH,-31.7335,28.4676,GPS,50979
Eastern Cape,Amathole,Mqhele Clinic,Clinic,MoH,-31.9942,28.892,GPS,50980
Eastern Cape,Joe Gqabi,Mqokolweni Clinic,Clinic,MoH,-31.1219,28.5493,GPS,50981
Eastern Cape,Amathole,Msendo Clinic,Clinic,MoH,-32.2709,28.7894,GPS,50982
Eastern Cape,Amathole,Msobomvu Clinic,Clinic,MoH,-32.7005,26.8528,GPS,50983
Eastern Cape,O.R.Tambo,Mtakatye Clinic,Clinic,MoH,-31.8464,29.2453,GPS,50984
Eastern Cape,O.R.Tambo,Mtambalala Clinic,Clinic,MoH,-31.325,29.3529,GPS,50985
Eastern Cape,O.R.Tambo,Mthatha Defence Force Clinic,Clinic,MoH,-31.5706,28.6541,GPS,50986
Eastern Cape,O.R.Tambo,Mthatha Gateway Clinic,Clinic,MoH,-31.5903,28.7659,GPS,50987
Eastern Cape,O.R.Tambo,Mthatha General Hospital,Regional Hospital,MoH,-31.5903,28.7659,GPS,50988
Eastern Cape,O.R.Tambo,Mthatha Immunisation Pool Clinic,Clinic,MoH,-31.5903,28.7659,GPS,50989
Eastern Cape,Chris Hani,Mtingwevu Clinic,Clinic,MoH,-31.747,27.6282,GPS,50990
Eastern Cape,Amathole,Mtombe Clinic,Clinic,MoH,-33.0545,27.3346,GPS,50991
Eastern Cape,Amathole,Mtyholo Clinic,Clinic,MoH,-32.9919,27.3566,GPS,50992
Eastern Cape,Joe Gqabi,Musong Clinic,Clinic,MoH,-30.491,27.5607,GPS,50993
Eastern Cape,Alfred Nzo,Mvenyane Clinic,Clinic,MoH,-30.5525,29.0363,GPS,50994
Eastern Cape,Alfred Nzo,Mwaca Clinic,Clinic,MoH,-30.6399,29.2382,GPS,50995
Eastern Cape,Buffalo City,Mxalanga Clinic,Clinic,MoH,-32.7398,27.3659,GPS,50996
Eastern Cape,Amathole,Mxhelo Clinic,Clinic,MoH,-32.7946,26.7348,GPS,50997
Eastern Cape,Joe Gqabi,Mzamomhle Clinic Albert,Clinic,MoH,-31.0072,26.3352,GPS,50998
Eastern Cape,Amathole,Mzamomhle Clinic Bedford,Clinic,MoH,-32.6903,26.0966,GPS,50999
Eastern Cape,O.R.Tambo,Mzintlava Clinic,Clinic,MoH,-31.4059,29.5108,GPS,51000
Eastern Cape,Cacadu,Mziwabantu Clinic,Clinic,MoH,-32.578,25.128,GPS,51001
Eastern Cape,Alfred Nzo,Mzongwana Clinic,Clinic,MoH,-30.1677,29.0521,GPS,51002
Eastern Cape,O.R.Tambo,Ncambele Clinic,Clinic,MoH,-31.5013,28.7361,GPS,51003
Eastern Cape,Chris Hani,Ncedolwethu Clinic,Clinic,MoH,-31.3295,27.8231,GPS,51004
Eastern Cape,Chris Hani,Nceduluntu Clinic,Clinic,MoH,-31.3774,26.354,GPS,51005
Eastern Cape,Joe Gqabi,Ncembu Clinic,Clinic,MoH,-31.3516,28.4067,GPS,51006
Eastern Cape,Buffalo City,Ncera Clinic,Clinic,MoH,-33.1156,27.5924,GPS,51007
Eastern Cape,Amathole,Ncizele Clinic,Clinic,MoH,-32.593,28.4332,GPS,51008
Eastern Cape,Chris Hani,Ncora Clinic,Clinic,MoH,-31.8185,27.7408,GPS,51009
Eastern Cape,Amathole,Ndabakazi Clinic,Clinic,MoH,-32.3478,28.0382,GPS,51010
Eastern Cape,O.R.Tambo,Ndanya Clinic,Clinic,MoH,-31.5724,28.9617,GPS,51011
Eastern Cape,Alfred Nzo,Ndawenzima Clinic,Clinic,MoH,-30.9095,29.3618,GPS,51012
Eastern Cape,Alfred Nzo,Ndela Clinic,Clinic,MoH,-30.9479,29.7135,GPS,51013
Eastern Cape,Buffalo City,Ndevana Clinic,Clinic,MoH,-32.9098,27.507,GPS,51014
Eastern Cape,O.R.Tambo,Ndibela Clinic,Clinic,MoH,-31.8338,28.4172,GPS,51015
Eastern Cape,Joe Gqabi,Ndofela Clinic,Clinic,MoH,-30.3838,27.4318,GPS,51016
Eastern Cape,Chris Hani,Ndonga Clinic,Clinic,MoH,-31.6249,27.3891,GPS,51017
Eastern Cape,Amathole,Ndwayana Clinic,Clinic,MoH,-33.1604,26.8723,GPS,51018
Eastern Cape,Buffalo City,Needs Camp Clinic,Clinic,MoH,-33.0055,27.647,GPS,51019
Eastern Cape,O.R.Tambo,Nelson Mandela Academic Hospital,National Central Hospital,MoH,-31.5881,28.7642,GPS,51020
Eastern Cape,O.R.Tambo,Nessie Knight Gateway Clinic,Clinic,MoH,-31.0091,28.6822,GPS,51021
Eastern Cape,O.R.Tambo,Nessie Knight Hospital,District Hospital,MoH,-31.0091,28.6822,GPS,51022
Eastern Cape,Nelson Mandela Bay,New Brighton CHC,Community Health Centre,MoH,-33.9086,25.5855,GPS,51023
Eastern Cape,Nelson Mandela Bay,New Brighton Clinic,Clinic,MoH,-33.9049,25.5978,GPS,51024
Eastern Cape,Chris Hani,New Rest Clinic,Clinic,MoH,-31.904,26.8717,GPS,51025
Eastern Cape,Buffalo City,Newlands Clinic,Clinic,MoH,-32.8778,27.7491,GPS,51026
Eastern Cape,Amathole,Newtown Clinic,Clinic,MoH,-32.774,26.6133,GPS,51027
Eastern Cape,Cacadu,NG Dlukulu Clinic,Clinic,MoH,-33.2789,26.5777,GPS,51028
Eastern Cape,O.R.Tambo,Ngangelizwe CHC,Community Health Centre,MoH,-31.6014,28.7999,GPS,51029
Eastern Cape,O.R.Tambo,Ngcengane Clinic,Clinic,MoH,-31.5379,28.6043,GPS,51030
Eastern Cape,Chris Hani,Ngceza Clinic,Clinic,MoH,-31.9747,27.7345,GPS,51031
Eastern Cape,Chris Hani,Ngcobo CHC,Community Health Centre,MoH,-31.6785,28.0055,GPS,51032
Eastern Cape,O.R.Tambo,Ngcolora Clinic,Clinic,MoH,-31.3363,28.8955,GPS,51033
Eastern Cape,O.R.Tambo,Ngcoya Clinic,Clinic,MoH,-31.3887,29.3365,GPS,51034
Eastern Cape,Chris Hani,Ngcuka Satellite Clinic,Satellite Clinic,MoH,-31.7285,27.2538,GPS,51035
Eastern Cape,O.R.Tambo,Ngcwanguba CHC,Community Health Centre,MoH,-31.919,29.0324,GPS,51036
Eastern Cape,Chris Hani,Ngonyama CHC,Community Health Centre,MoH,-31.6815,26.9337,GPS,51037
Eastern Cape,Chris Hani,Ngqanda Satellite Clinic,Satellite Clinic,MoH,-31.6727,27.2017,GPS,51038
Eastern Cape,O.R.Tambo,Ngqeleni Clinic,Clinic,MoH,-31.62,28.84,GPS,51039
Eastern Cape,O.R.Tambo,Ngqungqu Clinic,Clinic,MoH,-31.8654,28.8176,GPS,51040
Eastern Cape,Amathole,Ngqusi Clinic,Clinic,MoH,-32.4882,28.4036,GPS,51041
Eastern Cape,O.R.Tambo,Ngqwarha Clinic,Clinic,MoH,-31.7339,28.778,GPS,51042
Eastern Cape,Chris Hani,Ngqwaru Clinic,Clinic,MoH,-31.8552,27.7849,GPS,51043
Eastern Cape,Amathole,Ngqwele Clinic,Clinic,MoH,-32.9049,27.2175,GPS,51044
Eastern Cape,O.R.Tambo,Ngwemnyama Clinic,Clinic,MoH,-31.255,29.016,GPS,51045
Eastern Cape,O.R.Tambo,Ngwenya Clinic,Clinic,MoH,-31.9495,28.7668,GPS,51046
Eastern Cape,Chris Hani,Ngxabangu Clinic,Clinic,MoH,-31.8452,27.6103,GPS,51047
Eastern Cape,Joe Gqabi,Ngxaza Clinic,Clinic,MoH,-31.2148,28.5064,GPS,51048
Eastern Cape,Amathole,Nier Clinic,Clinic,MoH,-33.3579,27.2421,GPS,51049
Eastern Cape,Cacadu,Nieu-Bethesda Clinic,Clinic,MoH,-31.8685,24.5534,GPS,51050
Eastern Cape,Amathole,Njwaxa Clinic,Clinic,MoH,-32.8728,26.9056,GPS,51051
Eastern Cape,O.R.Tambo,Nkanga Clinic,Clinic,MoH,-31.4641,29.1744,GPS,51052
Eastern Cape,O.R.Tambo,Nkanunu Clinic,Clinic,MoH,-31.7599,29.2393,GPS,51053
Eastern Cape,Amathole,Nkanya Clinic,Clinic,MoH,-32.152,28.9504,GPS,51054
Eastern Cape,O.R.Tambo,Nkozo Clinic,Clinic,MoH,-31.2017,29.43,GPS,51055
Eastern Cape,O.R.Tambo,Nkumandeni Clinic,Clinic,MoH,-31.7301,29.0482,GPS,51056
Eastern Cape,Chris Hani,Nkwenkwana Clinic,Clinic,MoH,-31.7716,28.2093,GPS,51057
Eastern Cape,Cacadu,Nkwenkwezi Clinic,Clinic,MoH,-33.5773,26.8925,GPS,51058
Eastern Cape,Buffalo City,Nobuhle NU 8 Clinic,Clinic,MoH,-32.9411,27.7251,GPS,51059
Eastern Cape,O.R.Tambo,Nolita Clinic,Clinic,MoH,-31.6998,28.9464,GPS,51060
Eastern Cape,Cacadu,Nolukhanyo Clinic,Clinic,MoH,-33.4937,26.8312,GPS,51061
Eastern Cape,Amathole,Nomakhwezi Makhenyane Clinic,Clinic,MoH,-32.6929,26.3134,GPS,51062
Eastern Cape,Nelson Mandela Bay,Nomangesi Jayiya Clinic,Clinic,MoH,-33.8205,25.384,GPS,51063
Eastern Cape,Chris Hani,Nomonde Clinic,Clinic,MoH,-31.3865,26.3589,GPS,51064
Eastern Cape,Chris Hani,Nompumelelo Clinic,Clinic,MoH,-31.4716,27.347,GPS,51065
Eastern Cape,Amathole,Nompumelelo Gateway Clinic,Clinic,MoH,-33.2069,27.1304,GPS,51066
Eastern Cape,Amathole,Nompumelelo Hospital  Peddie,District Hospital,MoH,-33.2092,27.1324,GPS,51067
Eastern Cape,Chris Hani,Nomzamo CHC,Community Health Centre,MoH,-31.913,26.9707,GPS,51068
Eastern Cape,Buffalo City,Noncampa Clinic,Clinic,MoH,-32.9074,27.2993,GPS,51069
Eastern Cape,O.R.Tambo,Nontsikelelo Biko Clinic,Clinic,MoH,-31.4816,29.0737,GPS,51070
Eastern Cape,Buffalo City,Nontyatyambo CHC,Community Health Centre,MoH,-32.9472,27.7546,GPS,51071
Eastern Cape,Amathole,Norah Clinic,Clinic,MoH,-33.2278,27.3087,GPS,51072
Eastern Cape,Unassigned — Eastern Cape,Nosekeni Nongaphi Mandela Clinic,Clinic,MoH,,,,51073
Eastern Cape,Amathole,Nozuko Clinic,Clinic,MoH,-32.3235,28.1674,GPS,51074
Eastern Cape,Amathole,Nqabara Clinic,Clinic,MoH,-32.2466,28.7208,GPS,51075
Eastern Cape,Amathole,Nqabeni Clinic,Clinic,MoH,-32.1188,28.5849,GPS,51076
Eastern Cape,Amathole,Nqadu Clinic Mbhashe,Clinic,MoH,-32.2357,28.4211,GPS,51077
Eastern Cape,Amathole,Nqamakwe CHC,Community Health Centre,MoH,-32.2082,27.9361,GPS,51078
Eastern Cape,Amathole,Nqancule Clinic,Clinic,MoH,-32.3521,27.7932,GPS,51079
Eastern Cape,O.R.Tambo,Nqanda A Clinic,Clinic,MoH,-31.7502,28.9236,GPS,51080
Eastern Cape,Chris Hani,Nququ Clinic,Clinic,MoH,-31.8121,27.6132,GPS,51081
Eastern Cape,O.R.Tambo,Nqwathi Clinic,Clinic,MoH,-31.7096,28.3584,GPS,51082
Eastern Cape,Amathole,Ntaba ka Ndoda Clinic,Clinic,MoH,-32.8183,27.107,GPS,51083
Eastern Cape,O.R.Tambo,Ntafufu Clinic,Clinic,MoH,-31.4973,29.5272,GPS,51084
Eastern Cape,O.R.Tambo,Ntapane Clinic,Clinic,MoH,-31.5964,28.8487,GPS,51085
Eastern Cape,O.R.Tambo,Ntibane Clinic,Clinic,MoH,-31.8034,29.1794,GPS,51086
Eastern Cape,Alfred Nzo,Ntlabeni Clinic,Clinic,MoH,-30.7422,28.9225,GPS,51087
Eastern Cape,O.R.Tambo,Ntlangaza Clinic,Clinic,MoH,-31.8271,28.8718,GPS,51088
Eastern Cape,Alfred Nzo,Ntlenzi Clinic,Clinic,MoH,-30.9508,29.6125,GPS,51089
Eastern Cape,Alfred Nzo,Ntlola Clinic,Clinic,MoH,-30.5979,29.0799,GPS,51090
Eastern Cape,Amathole,Ntseshe Clinic,Clinic,MoH,-32.0942,28.0991,GPS,51091
Eastern Cape,O.R.Tambo,Ntshabeni Clinic,Clinic,MoH,-31.5192,28.6679,GPS,51092
Eastern Cape,O.R.Tambo,Ntshele Clinic,Clinic,MoH,-31.6726,28.7226,GPS,51093
Eastern Cape,Alfred Nzo,Ntshentshe Clinic,Clinic,MoH,-30.7076,29.5351,GPS,51094
Eastern Cape,Chris Hani,Ntshingeni Clinic,Clinic,MoH,-32.0475,27.4252,GPS,51095
Eastern Cape,Chris Hani,Ntsimba Clinic,Clinic,MoH,-31.8592,28.2119,GPS,51096
Eastern Cape,Chris Hani,Ntsitho Clinic,Clinic,MoH,-31.8592,28.2119,GPS,51097
Eastern Cape,Alfred Nzo,Ntsizwa Clinic,Clinic,MoH,-30.7381,29.2452,GPS,51098
Eastern Cape,Buffalo City,NU 12 Clinic,Clinic,MoH,-32.9328,27.7179,GPS,51099
Eastern Cape,Buffalo City,NU 13 Clinic,Clinic,MoH,-32.9414,27.7007,GPS,51100
Eastern Cape,Buffalo City,NU 16 Clinic,Clinic,MoH,-32.959,27.6932,GPS,51101
Eastern Cape,Buffalo City,NU 17 Clinic,Clinic,MoH,-32.9489,27.6862,GPS,51102
Eastern Cape,O.R.Tambo,Nxotwe Clinic Qumbu,Clinic,MoH,-31.161,28.7308,GPS,51103
Eastern Cape,Chris Hani,Nyalasa Clinic,Clinic,MoH,-31.6908,27.6796,GPS,51104
Eastern Cape,O.R.Tambo,Nyandeni Clinic,Clinic,MoH,-31.4555,28.972,GPS,51105
Eastern Cape,Alfred Nzo,Nyaniso Clinic,Clinic,MoH,-30.5588,28.7336,GPS,51106
Eastern Cape,Amathole,Nyhwara Clinic,Clinic,MoH,-31.9441,28.3733,GPS,51107
Eastern Cape,O.R.Tambo,Nzulwini Clinic,Clinic,MoH,-32.0324,29.1075,GPS,51108
Eastern Cape,O.R.Tambo,Old Bunting Clinic,Clinic,MoH,-31.6723,29.1815,GPS,51109
Eastern Cape,Buffalo City,Openshaw Clinic,Clinic,MoH,-33.1582,27.4473,GPS,51110
Eastern Cape,Joe Gqabi,Oviston Satellite Clinic,Satellite Clinic,MoH,-30.778,25.7972,GPS,51111
Eastern Cape,Chris Hani,Oxton Clinic,Clinic,MoH,-32.2279,26.7061,GPS,51112
Eastern Cape,Alfred Nzo,Paballong Clinic,Clinic,MoH,-30.4205,28.5063,GPS,51113
Eastern Cape,Buffalo City,Pakamisa Clinic,Clinic,MoH,-32.9358,27.4525,GPS,51114
Eastern Cape,Cacadu,Pal 1 Clinic,Clinic,MoH,-33.5666,26.8916,GPS,51115
Eastern Cape,Cacadu,Pal 2 Clinic,Clinic,MoH,-33.5792,26.8839,GPS,51116
Eastern Cape,O.R.Tambo,Palmerton Clinic,Clinic,MoH,-31.3221,29.4907,GPS,51117
Eastern Cape,Joe Gqabi,Palmietfontein Clinic,Clinic,MoH,-30.4307,27.5334,GPS,51118
Eastern Cape,Nelson Mandela Bay,Park Centre Clinic,Clinic,MoH,-33.7639,25.4014,GPS,51119
Eastern Cape,Chris Hani,Parkvale Clinic,Clinic,MoH,-31.9211,26.8739,GPS,51120
Eastern Cape,Cacadu,Patensie Town Satellite Clinic,Satellite Clinic,MoH,-33.7589,24.8107,GPS,51121
Eastern Cape,Cacadu,Paterson Clinic,Clinic,MoH,-33.4403,25.9737,GPS,51122
Eastern Cape,Amathole,Peddie Extension Clinic,Clinic,MoH,-33.1998,27.1041,GPS,51123
Eastern Cape,Buffalo City,Peelton Clinic,Clinic,MoH,-32.7727,27.4978,GPS,51124
Eastern Cape,Buffalo City,Pefferville Clinic,Clinic,MoH,-33.0119,27.8808,GPS,51125
Eastern Cape,Joe Gqabi,Pelandaba Clinic,Clinic,MoH,-30.5994,27.6008,GPS,51126
Eastern Cape,Cacadu,Pellsrus Clinic,Clinic,MoH,-34.0588,24.9217,GPS,51127
Eastern Cape,Amathole,Perksdale Clinic,Clinic,MoH,-32.8925,27.076,GPS,51128
Eastern Cape,Buffalo City,Petros Jobane Clinic,Clinic,MoH,-32.9676,27.885,GPS,51129
Eastern Cape,O.R.Tambo,Phahlakazi Clinic,Clinic,MoH,-31.7699,29.2755,GPS,51130
Eastern Cape,O.R.Tambo,Phakamile Clinic,Clinic,MoH,-31.9368,28.5667,GPS,51131
Eastern Cape,Chris Hani,Philani Clinic Cradock,Clinic,MoH,-32.182,25.6405,GPS,51132
Eastern Cape,Chris Hani,Philani Clinic Emalahleni,Clinic,MoH,-31.7199,27.1994,GPS,51133
Eastern Cape,Amathole,Philani Clinic King William's Town,Clinic,MoH,-32.7002,27.5536,GPS,51134
Eastern Cape,Chris Hani,Philani Clinic Queenstown,Clinic,MoH,-31.9108,26.8703,GPS,51135
Eastern Cape,Buffalo City,Philani NU 1 Clinic,Clinic,MoH,-32.9384,27.7703,GPS,51136
Eastern Cape,Amathole,Pikholi Clinic,Clinic,MoH,-33.1881,26.9642,GPS,51137
Eastern Cape,O.R.Tambo,Pilani Clinic,Clinic,MoH,-31.9056,29.1473,GPS,51138
Eastern Cape,Buffalo City,Pirie Clinic,Clinic,MoH,-32.7924,27.2458,GPS,51139
Eastern Cape,Chris Hani,Plumstead Clinic,Clinic,MoH,-32.0262,27.7933,GPS,51140
Eastern Cape,Joe Gqabi,Poly Clinic,Clinic,MoH,-30.6929,26.7076,GPS,51141
Eastern Cape,Cacadu,Port Alfred Clinic,Clinic,MoH,-33.5924,26.8872,GPS,51142
Eastern Cape,Cacadu,Port Alfred Hospital,District Hospital,MoH,-33.5953,26.8831,GPS,51143
Eastern Cape,Nelson Mandela Bay,Port Elizabeth Provincial Hospital,Provincial Tertiary Hospital,MoH,-33.9584,25.5998,GPS,51144
Eastern Cape,O.R.Tambo,Port St Johns CHC,Community Health Centre,MoH,-31.6323,29.5457,GPS,51145
Eastern Cape,Buffalo City,Potsdam Clinic,Clinic,MoH,-32.9811,27.6442,GPS,51146
Eastern Cape,Chris Hani,Pricesdale Clinic,Clinic,MoH,-32.2477,26.7264,GPS,51147
Eastern Cape,Cacadu,Prinsvale Clinic,Clinic,MoH,-33.027,24.325,GPS,51148
Eastern Cape,Amathole,Punzana Clinic,Clinic,MoH,-33.049,27.3669,GPS,51149
Eastern Cape,Chris Hani,Qamata Clinic,Clinic,MoH,-31.9746,27.4348,GPS,51150
Eastern Cape,O.R.Tambo,Qandu Clinic,Clinic,MoH,-31.733,29.2792,GPS,51151
Eastern Cape,O.R.Tambo,Qanqu Clinic,Clinic,MoH,-30.9188,28.733,GPS,51152
Eastern Cape,Alfred Nzo,Qaqa Clinic,Clinic,MoH,-31.0204,29.2179,GPS,51153
Eastern Cape,Alfred Nzo,Qasa Clinic,Clinic,MoH,-31.0268,29.4177,GPS,51154
Eastern Cape,O.R.Tambo,Qaukeni Clinic,Clinic,MoH,-31.1641,29.3467,GPS,51155
Eastern Cape,Chris Hani,Qebe Clinic,Clinic,MoH,-31.5122,28.0356,GPS,51156
Eastern Cape,Amathole,Qeto Clinic,Clinic,MoH,-33.326,27.098,GPS,51157
Eastern Cape,Chris Hani,Qhiba Clinic,Clinic,MoH,-31.4385,27.7235,GPS,51158
Eastern Cape,Amathole,Qibira Clinic,Clinic,MoH,-32.9455,27.0346,GPS,51159
Eastern Cape,Amathole,Qina Clinic,Clinic,MoH,-32.4548,28.1825,GPS,51160
Eastern Cape,Chris Hani,Qitsi Clinic,Clinic,MoH,-31.9187,27.9287,GPS,51161
Eastern Cape,Alfred Nzo,Qobo Clinic,Clinic,MoH,-30.7349,29.7058,GPS,51162
Eastern Cape,O.R.Tambo,Qokolweni Clinic,Clinic,MoH,-31.7021,28.7795,GPS,51163
Eastern Cape,O.R.Tambo,Qolombane Clinic Qumbu,Clinic,MoH,-31.4208,28.7585,GPS,51164
Eastern Cape,Amathole,Qolora-By-Sea Clinic,Clinic,MoH,-32.6335,28.4143,GPS,51165
Eastern Cape,Chris Hani,Qombolo Clinic,Clinic,MoH,-32.0024,27.6645,GPS,51166
Eastern Cape,Chris Hani,Qoqodala Clinic,Clinic,MoH,-31.7159,26.9502,GPS,51167
Eastern Cape,Chris Hani,Queen Nonesi Clinic,Clinic,MoH,-31.821,27.0109,GPS,51168
Eastern Cape,Joe Gqabi,Queen Noti Clinic,Clinic,MoH,-31.1614,28.5488,GPS,51169
Eastern Cape,Alfred Nzo,Queen's Mercy Clinic,Clinic,MoH,-30.2544,28.5688,GPS,51170
Eastern Cape,Chris Hani,Qumanco Clinic,Clinic,MoH,-31.7859,27.9235,GPS,51171
Eastern Cape,Chris Hani,Qumanco J Tribal Clinic,Clinic,MoH,-31.7938,27.8194,GPS,51172
Eastern Cape,O.R.Tambo,Qumbu CHC,Community Health Centre,MoH,-31.1672,28.8699,GPS,51173
Eastern Cape,O.R.Tambo,Qunu Clinic,Clinic,MoH,-31.7714,28.6171,GPS,51174
Eastern Cape,Buffalo City,Qurhu Clinic,Clinic,MoH,-33.0025,27.5439,GPS,51175
Eastern Cape,Amathole,Qwaninga Clinic,Clinic,MoH,-32.3983,28.6207,GPS,51176
Eastern Cape,Alfred Nzo,Qwidlana Clinic,Clinic,MoH,-30.7988,28.7081,GPS,51177
Eastern Cape,Chris Hani,Qwiliqwili Clinic,Clinic,MoH,-32.2836,27.7369,GPS,51178
Eastern Cape,Amathole,Rabula Clinic,Clinic,MoH,-32.7486,27.166,GPS,51179
Eastern Cape,Cacadu,Raglan Road Clinic,Clinic,MoH,-33.3068,26.5403,GPS,51180
Eastern Cape,Cacadu,Raymond Mhlaba Clinic,Clinic,MoH,-33.2003,26.1486,GPS,51181
Eastern Cape,Joe Gqabi,Rhodes Satellite Clinic,Satellite Clinic,MoH,-30.7983,27.96,GPS,51182
Eastern Cape,Cacadu,Rietbron Clinic,Clinic,MoH,-33.1395,23.6142,GPS,51183
Eastern Cape,Amathole,Robert Mbelekana Clinic,Clinic,MoH,-33.1659,26.9163,GPS,51184
Eastern Cape,Joe Gqabi,Robert Mjobo Clinic,Clinic,MoH,-30.7128,27.2118,GPS,51185
Eastern Cape,Chris Hani,Rocklands Clinic,Clinic,MoH,-32.0168,26.4796,GPS,51186
Eastern Cape,Chris Hani,Rodana Clinic,Clinic,MoH,-31.9146,27.2014,GPS,51187
Eastern Cape,Alfred Nzo,Rode Clinic,Clinic,MoH,-30.8257,29.1383,GPS,51188
Eastern Cape,Alfred Nzo,Rolweni Clinic,Clinic,MoH,-30.5593,28.8123,GPS,51189
Eastern Cape,Nelson Mandela Bay,Rosedale CHC,Community Health Centre,MoH,-33.7368,25.3762,GPS,51190
Eastern Cape,Chris Hani,Rwantsana Clinic,Clinic,MoH,-31.8449,27.3134,GPS,51191
Eastern Cape,Amathole,Rwarwa Clinic,Clinic,MoH,-32.745,26.9098,GPS,51192
Eastern Cape,Chris Hani,Sabalele Clinic,Clinic,MoH,-32.1065,27.4557,GPS,51193
Eastern Cape,Chris Hani,Sada Clinic,Clinic,MoH,-32.2028,26.8104,GPS,51194
Eastern Cape,Joe Gqabi,Sandbult Clinic,Clinic,MoH,-31.0003,26.3299,GPS,51195
Eastern Cape,Cacadu,Sanddrif Clinic,Clinic,MoH,-33.9901,23.9695,GPS,51196
Eastern Cape,O.R.Tambo,Sangoni Clinic,Clinic,MoH,-31.6906,28.7725,GPS,51197
Eastern Cape,Cacadu,SAWAS Memorial Hospital Jansenville,District Hospital,MoH,-32.9422,24.662,GPS,51198
Eastern Cape,Nelson Mandela Bay,Schauderville Clinic,Clinic,MoH,-33.9331,25.5754,GPS,51199
Eastern Cape,Amathole,Sebeni Clinic,Clinic,MoH,-32.3894,28.5962,GPS,51200
Eastern Cape,Joe Gqabi,Seqhobong Clinic,Clinic,MoH,-30.4353,28.4248,GPS,51201
Eastern Cape,Cacadu,Settlers Day Hospital,Community Health Centre,MoH,-33.3077,26.5335,GPS,51202
Eastern Cape,Cacadu,Settlers Hospital,District Hospital,MoH,-33.3024,26.5146,GPS,51203
Eastern Cape,Amathole,Seymour Clinic,Clinic,MoH,-32.5507,26.7662,GPS,51204
Eastern Cape,O.R.Tambo,Shawbury Clinic,Clinic,MoH,-31.231,28.9582,GPS,51205
Eastern Cape,Alfred Nzo,Shepherds Hope Clinic,Clinic,MoH,-30.3468,28.5929,GPS,51206
Eastern Cape,Amathole,Sheshegu Clinic,Clinic,MoH,-32.9013,26.785,GPS,51207
Eastern Cape,Chris Hani,Shiloh Clinic,Clinic,MoH,-32.2003,26.8272,GPS,51208
Eastern Cape,Buffalo City,Shornville Clinic,Clinic,MoH,-32.8974,27.3988,GPS,51209
Eastern Cape,O.R.Tambo,Sidwadweni Clinic,Clinic,MoH,-31.3564,28.8362,GPS,51210
Eastern Cape,Nelson Mandela Bay,Sidwell Satellite Clinic,Satellite Clinic,MoH,-33.9331,25.5754,GPS,51211
Eastern Cape,Chris Hani,Sifonondile Clinic,Clinic,MoH,-31.4913,27.64,GPS,51212
Eastern Cape,Alfred Nzo,Sigidi Clinic,Clinic,MoH,-30.9424,29.3515,GPS,51213
Eastern Cape,Nelson Mandela Bay,Silvertown Clinic,Clinic,MoH,-33.8265,25.4022,GPS,51214
Eastern Cape,Buffalo City,Sinebhongo Clinic,Clinic,MoH,-32.9818,27.8575,GPS,51215
Eastern Cape,Chris Hani,Sinqumeni Clinic,Clinic,MoH,-31.4181,28.263,GPS,51216
Eastern Cape,Alfred Nzo,Sipetu Gateway Clinic,Clinic,MoH,-31.0917,29.1873,GPS,51217
Eastern Cape,Alfred Nzo,Sipetu Hospital,District Hospital,MoH,-31.0917,29.1873,GPS,51218
Eastern Cape,O.R.Tambo,Sitebe Clinic,Clinic,MoH,-31.8829,28.5809,GPS,51219
Eastern Cape,Amathole,Soga Clinic,Clinic,MoH,-32.0292,28.7382,GPS,51220
Eastern Cape,Joe Gqabi,Sonwabile Clinic,Clinic,MoH,-31.0745,28.361,GPS,51221
Eastern Cape,Joe Gqabi,Sonwabo Zandile Clinic,Clinic,MoH,-30.9666,27.594,GPS,51222
Eastern Cape,O.R.Tambo,SOS Clinic,Clinic,MoH,-31.6222,28.7454,GPS,51223
Eastern Cape,Amathole,Soto Clinic,Clinic,MoH,-32.6985,28.1339,GPS,51224
Eastern Cape,Nelson Mandela Bay,Soweto Clinic,Clinic,MoH,-33.8599,25.5676,GPS,51225
Eastern Cape,Chris Hani,Springrove Clinic,Clinic,MoH,-32.1105,26.4633,GPS,51226
Eastern Cape,Amathole,Springs Clinic,Clinic,MoH,-32.4598,28.0792,GPS,51227
Eastern Cape,Amathole,SS Gida Gateway Clinic,Clinic,MoH,-32.6745,27.1436,GPS,51228
Eastern Cape,Amathole,SS Gida Hospital,District Hospital,MoH,-32.6745,27.1435,GPS,51229
Eastern Cape,Joe Gqabi,St Augustine's Clinic,Clinic,MoH,-31.2242,28.6025,GPS,51230
Eastern Cape,O.R.Tambo,St Barnabas Gateway Clinic,Clinic,MoH,-31.5642,29.1162,GPS,51231
Eastern Cape,O.R.Tambo,St Barnabas Hospital,District Hospital,MoH,-31.5642,29.1162,GPS,51232
Eastern Cape,O.R.Tambo,St Elizabeth's Gateway Clinic,Clinic,MoH,-31.3599,29.5655,GPS,51233
Eastern Cape,O.R.Tambo,St Elizabeth's Hospital,Regional Hospital,MoH,-31.3598,29.5653,GPS,51234
Eastern Cape,Cacadu,St Francis Bay Clinic,Clinic,MoH,-34.1746,24.8178,GPS,51235
Eastern Cape,Joe Gqabi,St Francis Hospital,District Hospital,MoH,-30.6887,26.6992,GPS,51236
Eastern Cape,O.R.Tambo,St Lucy's Gateway Clinic,Clinic,MoH,-31.3004,28.6308,GPS,51237
Eastern Cape,O.R.Tambo,St Lucy's Hospital,District Hospital,MoH,-31.3007,28.6298,GPS,51238
Eastern Cape,Chris Hani,St Mark's Clinic,Clinic,MoH,-32.0127,27.4076,GPS,51239
Eastern Cape,Amathole,St Matthew's Clinic,Clinic,MoH,-32.6477,27.181,GPS,51240
Eastern Cape,Joe Gqabi,St Michael's Clinic,Clinic,MoH,-30.4713,27.4415,GPS,51241
Eastern Cape,Alfred Nzo,St Patrick's Gateway Clinic,Clinic,MoH,-30.8653,29.8516,GPS,51242
Eastern Cape,Alfred Nzo,St Patrick's Hospital,District Hospital,MoH,-30.8654,29.8516,GPS,51243
Eastern Cape,Buffalo City,St Thomas Clinic,Clinic,MoH,-32.6989,27.3707,GPS,51244
Eastern Cape,O.R.Tambo,Stanford Terrace Clinic,Clinic,MoH,-31.5862,28.7832,GPS,51245
Eastern Cape,Cacadu,Station Hill Clinic,Clinic,MoH,-33.5817,26.893,GPS,51246
Eastern Cape,Joe Gqabi,Sterkspruit Town Clinic,Clinic,MoH,-30.5332,27.3534,GPS,51247
Eastern Cape,Chris Hani,Sterkstroom Clinic,Clinic,MoH,-31.5531,26.5534,GPS,51248
Eastern Cape,Chris Hani,Sterkstroom Hospital,District Hospital,MoH,-31.5531,26.5534,GPS,51249
Eastern Cape,Joe Gqabi,Steynsburg Clinic,Clinic,MoH,-31.2959,25.8244,GPS,51250
Eastern Cape,Joe Gqabi,Steynsburg Hospital,District Hospital,MoH,-31.2932,25.8132,GPS,51251
Eastern Cape,Nelson Mandela Bay,Steytler Satellite Clinic,Satellite Clinic,MoH,-33.9331,25.5754,GPS,51252
Eastern Cape,Chris Hani,Stoney Croft Satellite Clinic,Satellite Clinic,MoH,-31.6831,27.3177,GPS,51253
Eastern Cape,Cacadu,Stormsriver Satellite Clinic,Satellite Clinic,MoH,-33.9948,23.8876,GPS,51254
Eastern Cape,Nelson Mandela Bay,Stow Road Clinic,Clinic,MoH,-33.7731,25.4064,GPS,51255
Eastern Cape,Amathole,Stutterheim Clinic,Clinic,MoH,-32.5694,27.4265,GPS,51256
Eastern Cape,Amathole,Stutterheim Hospital,District Hospital,MoH,-32.5713,27.4194,GPS,51257
Eastern Cape,Cacadu,Sundays Valley  Hospital Kirkwood,District Hospital,MoH,-33.3947,25.44,GPS,51258
Eastern Cape,Joe Gqabi,Sunduza Clinic,Clinic,MoH,-30.6155,27.3911,GPS,51259
Eastern Cape,Amathole,Sundwana Clinic,Clinic,MoH,-32.0956,28.5514,GPS,51260
Eastern Cape,Nelson Mandela Bay,Swartkops Satellite Clinic,Satellite Clinic,MoH,-33.8809,25.5917,GPS,51261
Eastern Cape,Chris Hani,Swartwater Clinic,Clinic,MoH,-31.6665,26.8314,GPS,51262
Eastern Cape,Buffalo City,Sweetwaters Clinic,Clinic,MoH,-32.9015,27.4157,GPS,51263
Eastern Cape,Nelson Mandela Bay,Sydenham Satellite Clinic,Satellite Clinic,MoH,-33.9366,25.6024,GPS,51264
Eastern Cape,Alfred Nzo,Tabankulu CHC,Community Health Centre,MoH,-30.9633,29.2995,GPS,51265
Eastern Cape,O.R.Tambo,Tabase Clinic,Clinic,MoH,-31.5718,28.5706,GPS,51266
Eastern Cape,Amathole,Tafalofefe Gateway Clinic,Clinic,MoH,-32.4292,28.4732,GPS,51267
Eastern Cape,Amathole,Tafalofefe Hospital,District Hospital,MoH,-32.4102,28.5183,GPS,51268
Eastern Cape,Amathole,Taleni Clinic,Clinic,MoH,-32.161,28.3897,GPS,51269
Eastern Cape,Amathole,Tamara Clinic,Clinic,MoH,-33.0001,27.2361,GPS,51270
Eastern Cape,Amathole,Tanga Clinic,Clinic,MoH,-32.2529,28.1851,GPS,51271
Eastern Cape,Chris Hani,Tarkastad Clinic,Clinic,MoH,-32.0099,26.2594,GPS,51272
Eastern Cape,Alfred Nzo,Tayler Bequest Gateway Clinic Matatiele,Clinic,MoH,-30.3473,28.8211,GPS,51273
Eastern Cape,Alfred Nzo,Tayler Bequest Hospital Matatiele,District Hospital,MoH,-30.3327,28.802,GPS,51274
Eastern Cape,Joe Gqabi,Taylor Bequest Gateway Clinic Elundini,Clinic,MoH,-30.6892,28.5099,GPS,51275
Eastern Cape,Joe Gqabi,Taylor Bequest Hospital Elundini,District Hospital,MoH,-30.6894,28.5096,GPS,51276
Eastern Cape,Alfred Nzo,Tela Clinic,Clinic,MoH,-30.759,29.4561,GPS,51277
Eastern Cape,Chris Hani,Tembelihle Clinic,Clinic,MoH,-31.5275,27.7001,GPS,51278
Eastern Cape,Buffalo City,Tembisa NU 7 Clinic,Clinic,MoH,-32.953,27.7237,GPS,51279
Eastern Cape,Chris Hani,Tentergate Clinic,Clinic,MoH,-32.0907,26.4621,GPS,51280
Eastern Cape,Alfred Nzo,Thabachicha Clinic,Clinic,MoH,-30.3631,28.391,GPS,51281
Eastern Cape,Nelson Mandela Bay,Thanduxolo Clinic,Clinic,MoH,-33.7945,25.5782,GPS,51282
Eastern Cape,Cacadu,Thembalesizwe Clinic,Clinic,MoH,-32.4727,24.0525,GPS,51283
Eastern Cape,Buffalo City,Thembalethu Clinic Buffalo City,Clinic,MoH,-32.8872,27.7891,GPS,51284
Eastern Cape,Chris Hani,Thembalethu Clinic Sakhisizwe,Clinic,MoH,-31.3376,27.8609,GPS,51285
Eastern Cape,Joe Gqabi,Thembisa Clinic,Clinic,MoH,-31.021,26.3188,GPS,51286
Eastern Cape,Nelson Mandela Bay,Theo Claasen Satellite Clinic,Satellite Clinic,MoH,-33.8847,25.5182,GPS,51287
Eastern Cape,Chris Hani,Thornhill CHC,Community Health Centre,MoH,-31.9872,26.6137,GPS,51288
Eastern Cape,Cacadu,Thornhill Clinic,Clinic,MoH,-33.8909,25.1476,GPS,51289
Eastern Cape,Amathole,Thozamile Madakana Clinic,Clinic,MoH,-32.7737,26.6475,GPS,51290
Eastern Cape,O.R.Tambo,Tina Falls Clinic,Clinic,MoH,-31.2197,29.0202,GPS,51291
Eastern Cape,O.R.Tambo,Tombo CHC,Community Health Centre,MoH,-31.6274,29.3829,GPS,51292
Eastern Cape,Chris Hani,Tora Clinic,Clinic,MoH,-31.8843,28.1505,GPS,51293
Eastern Cape,Nelson Mandela Bay,Trafalgar Clinic,Clinic,MoH,-33.9419,25.6029,GPS,51294
Eastern Cape,Chris Hani,Tsakana Clinic,Clinic,MoH,-31.8478,27.4686,GPS,51295
Eastern Cape,Alfred Nzo,Tsawana Clinic,Clinic,MoH,-30.807,29.9157,GPS,51296
Eastern Cape,Chris Hani,Tsembeyi Clinic,Clinic,MoH,-31.5858,27.014,GPS,51297
Eastern Cape,Chris Hani,Tsengiwe Clinic,Clinic,MoH,-31.5732,27.6571,GPS,51298
Eastern Cape,Buffalo City,Tshabo Clinic,Clinic,MoH,-32.9273,27.5475,GPS,51299
Eastern Cape,Nelson Mandela Bay,Tshangana Clinic,Clinic,MoH,-33.8911,25.5992,GPS,51300
Eastern Cape,Buffalo City,Tshatshu Clinic,Clinic,MoH,-32.9168,27.4518,GPS,51301
Eastern Cape,O.R.Tambo,Tshezi Clinic,Clinic,MoH,-31.958,29.0928,GPS,51302
Eastern Cape,Alfred Nzo,Tshungwana Clinic,Clinic,MoH,-30.9776,29.0273,GPS,51303
Eastern Cape,O.R.Tambo,Tsilitwa Clinic,Clinic,MoH,-30.9798,28.7404,GPS,51304
Eastern Cape,Chris Hani,Tsitsikamma Clinic,Clinic,MoH,-32.2269,26.5699,GPS,51305
Eastern Cape,O.R.Tambo,Tsolo Clinic,Clinic,MoH,-31.3071,28.7586,GPS,51306
Eastern Cape,Chris Hani,Tsomo Village Clinic,Clinic,MoH,-32.0383,27.8208,GPS,51307
Eastern Cape,Amathole,Tutura Clinic,Clinic,MoH,-32.3796,28.2346,GPS,51308
Eastern Cape,Amathole,Twecu Clinic,Clinic,MoH,-33.0675,27.2541,GPS,51309
Eastern Cape,Cacadu,Twee Riviere Clinic,Clinic,MoH,-33.8396,23.8925,GPS,51310
Eastern Cape,Amathole,Tyali Clinic,Clinic,MoH,-32.5754,28.3285,GPS,51311
Eastern Cape,Buffalo City,Tyamzashe FP Clinic,Clinic,MoH,-32.8464,27.4408,GPS,51312
Eastern Cape,Amathole,Tyata Clinic,Clinic,MoH,-33.185,27.16,GPS,51313
Eastern Cape,O.R.Tambo,Tyelebana Clinic,Clinic,MoH,-31.6902,28.4402,GPS,51314
Eastern Cape,Chris Hani,Tylden Clinic,Clinic,MoH,-32.115,27.0705,GPS,51315
Eastern Cape,Buffalo City,Tyutyu Clinic,Clinic,MoH,-32.8424,27.457,GPS,51316
Eastern Cape,Buffalo City,Tyutyu Village Clinic,Clinic,MoH,-32.8334,27.3869,GPS,51317
Eastern Cape,Joe Gqabi,Ugie Clinic,Clinic,MoH,-31.1967,28.2314,GPS,51318
Eastern Cape,Nelson Mandela Bay,Uitenhage Hospital,District Hospital,MoH,-33.7415,25.4068,GPS,51319
Eastern Cape,Joe Gqabi,Ulundi Clinic,Clinic,MoH,-30.644,28.2094,GPS,51320
Eastern Cape,Cacadu,Umasizakhe Clinic,Clinic,MoH,-32.2502,24.5415,GPS,51321
Eastern Cape,Joe Gqabi,Umlamli Gateway Clinic,Clinic,MoH,-30.5604,27.4746,GPS,51322
Eastern Cape,Joe Gqabi,Umlamli Hospital,District Hospital,MoH,-30.5604,27.4746,GPS,51323
Eastern Cape,Joe Gqabi,Umnga Flats Clinic,Clinic,MoH,-31.4386,28.3689,GPS,51324
Eastern Cape,Alfred Nzo,Umtumase Clinic,Clinic,MoH,-30.5651,28.5433,GPS,51325
Eastern Cape,Cacadu,Union Street Clinic,Clinic,MoH,-32.7201,25.5831,GPS,51326
Eastern Cape,Chris Hani,Upper Lafuta Clinic,Clinic,MoH,-31.6316,27.6241,GPS,51327
Eastern Cape,Chris Hani,Upper Mncuncuzo Clinic,Clinic,MoH,-31.9089,27.5486,GPS,51328
Eastern Cape,Amathole,Upper Ncera Clinic,Clinic,MoH,-32.7317,26.9278,GPS,51329
Eastern Cape,O.R.Tambo,Upper Xongora Clinic,Clinic,MoH,-31.673,28.5219,GPS,51330
Eastern Cape,Chris Hani,Vaalbank Clinic,Clinic,MoH,-31.6083,26.9252,GPS,51331
Eastern Cape,Nelson Mandela Bay,Veeplaas Clinic,Clinic,MoH,-33.8537,25.5507,GPS,51332
Eastern Cape,Joe Gqabi,Venterstad Clinic,Clinic,MoH,-30.7782,25.7969,GPS,51333
Eastern Cape,Cacadu,Vera Barford Clinic,Clinic,MoH,-32.7346,25.5914,GPS,51334
Eastern Cape,Amathole,Victoria Gateway Clinic,Clinic,MoH,-32.7752,26.8468,GPS,51335
Eastern Cape,Amathole,Victoria Hospital,District Hospital,MoH,-32.7752,26.8468,GPS,51336
Eastern Cape,Cacadu,Victoria Street Clinic,Clinic,MoH,-33.3324,24.3414,GPS,51337
Eastern Cape,Cacadu,Virginia Shumane Clinic,Clinic,MoH,-33.2961,26.5465,GPS,51338
Eastern Cape,Amathole,Vukukhanye Gateway Clinic,Clinic,MoH,-32.0956,28.8784,GPS,51339
Eastern Cape,Cacadu,Vuyolwethu Clinic,Clinic,MoH,-33.3326,24.3414,GPS,51340
Eastern Cape,Nelson Mandela Bay,Walmer 14th Avenue Clinic,Clinic,MoH,-33.9823,25.563,GPS,51341
Eastern Cape,Amathole,War Memorial Clinic,Clinic,MoH,-32.7928,26.8308,GPS,51342
Eastern Cape,Amathole,Wartburg Clinic,Clinic,MoH,-32.4447,27.4207,GPS,51343
Eastern Cape,Amathole,Washington Clinic,Clinic,MoH,-32.9922,27.0105,GPS,51344
Eastern Cape,Buffalo City,Welcomewood Clinic,Clinic,MoH,-33.0091,27.5979,GPS,51345
Eastern Cape,Nelson Mandela Bay,Wells Estate Clinic,Clinic,MoH,-33.8227,25.6339,GPS,51346
Eastern Cape,Amathole,Wesley Clinic,Clinic,MoH,-33.3226,27.3369,GPS,51347
Eastern Cape,Nelson Mandela Bay,West End CHC,Community Health Centre,MoH,-33.8847,25.5182,GPS,51348
Eastern Cape,Buffalo City,Westbank Nursery School Satellite Clinic,Satellite Clinic,MoH,-33.0318,27.9102,GPS,51349
Eastern Cape,Cacadu,Weston Clinic,Clinic,MoH,-33.8484,24.8654,GPS,51350
Eastern Cape,Chris Hani,Whittlesea CHC,Community Health Centre,MoH,-32.1729,26.8208,GPS,51351
Eastern Cape,Chris Hani,Wilhelm Stahl Hospital Middelburg,District Hospital,MoH,-31.4917,24.9935,GPS,51352
Eastern Cape,Cacadu,Willowmore Clinic,Clinic,MoH,-33.2921,23.4871,GPS,51353
Eastern Cape,Cacadu,Willowmore Hospital,District Hospital,MoH,-33.3004,23.4676,GPS,51354
Eastern Cape,Amathole,Willowvale CHC,Community Health Centre,MoH,-32.2654,28.4982,GPS,51355
Eastern Cape,O.R.Tambo,Wilo Clinic,Clinic,MoH,-31.8936,28.9432,GPS,51356
Eastern Cape,Joe Gqabi,Wittebergen Clinic,Clinic,MoH,-30.6023,27.1061,GPS,51357
Eastern Cape,Cacadu,Wongalethu Clinic,Clinic,MoH,-33.0267,24.3255,GPS,51358
Eastern Cape,Cacadu,Woodlands Clinic,Clinic,MoH,-34.0031,24.165,GPS,51359
Eastern Cape,Amathole,Xhora CHC,Community Health Centre,MoH,-31.9678,28.6839,GPS,51360
Eastern Cape,O.R.Tambo,Xhwili Clinic,Clinic,MoH,-31.7352,28.568,GPS,51361
Eastern Cape,Chris Hani,Xonxa Clinic,Clinic,MoH,-31.8489,27.0895,GPS,51362
Eastern Cape,O.R.Tambo,Xopozo Clinic,Clinic,MoH,-30.9883,29.4604,GPS,51363
Eastern Cape,Chris Hani,Xume Clinic,Clinic,MoH,-32.0595,27.9032,GPS,51364
Eastern Cape,O.R.Tambo,Xurana Clinic,Clinic,MoH,-31.2348,29.4949,GPS,51365
Eastern Cape,Chris Hani,Yonda Clinic,Clinic,MoH,-32.2842,26.6747,GPS,51366
Eastern Cape,Chris Hani,Zabasa Clinic,Clinic,MoH,-31.4464,28.2716,GPS,51367
Eastern Cape,Chris Hani,Zadungeni Clinic,Clinic,MoH,-31.5612,27.8938,GPS,51368
Eastern Cape,Amathole,Zalara Clinic,Clinic,MoH,-32.5953,27.1013,GPS,51369
Eastern Cape,Buffalo City,Zanempilo Clinic East London,Clinic,MoH,-32.9545,27.9915,GPS,51370
Eastern Cape,Buffalo City,Zanempilo Clinic Zwelitsha,Clinic,MoH,-32.801,27.4179,GPS,51371
Eastern Cape,Amathole,Zazulwana Clinic,Clinic,MoH,-32.2946,28.1606,GPS,51372
Eastern Cape,Joe Gqabi,Zenethemba Clinic,Clinic,MoH,-30.4874,27.4061,GPS,51373
Eastern Cape,O.R.Tambo,Zidindi Clinic,Clinic,MoH,-31.9897,29.0322,GPS,51374
Eastern Cape,Amathole,Zigodlo Clinic,Clinic,MoH,-32.9835,27.0653,GPS,51375
Eastern Cape,Amathole,Zihlahleni Clinic,Clinic,MoH,-32.8623,27.2011,GPS,51376
Eastern Cape,Buffalo City,Zikhova Clinic,Clinic,MoH,-33.2292,27.4783,GPS,51377
Eastern Cape,Nelson Mandela Bay,Zingisa Clinic,Clinic,MoH,-33.8662,25.5827,GPS,51378
Eastern Cape,Buffalo City,Zingisa NU 5 Clinic,Clinic,MoH,-32.9565,27.7387,GPS,51379
Eastern Cape,Chris Hani,Zingquthu Clinic,Clinic,MoH,-31.7514,26.8609,GPS,51380
Eastern Cape,O.R.Tambo,Zitatele Clinic,Clinic,MoH,-31.554,28.8321,GPS,51381
Eastern Cape,O.R.Tambo,Zitulele Gateway Clinic,Clinic,MoH,-32.0505,29.0916,GPS,51382
Eastern Cape,O.R.Tambo,Zitulele Hospital,District Hospital,MoH,-32.0505,29.0916,GPS,51383
Eastern Cape,Chris Hani,Zola Clinic,Clinic,MoH,-32.0115,26.2476,GPS,51384
Eastern Cape,Alfred Nzo,Zulu Clinic,Clinic,MoH,-30.9835,29.3028,GPS,51385
Eastern Cape,Chris Hani,Zwelakhe Dalasile CHC,Community Health Centre,MoH,-31.6481,28.2439,GPS,51386
Eastern Cape,O.R.Tambo,Zwelebhunga Clinic,Clinic,MoH,-31.9987,28.7292,GPS,51387
Eastern Cape,Chris Hani,Zweledinga Clinic,Clinic,MoH,-32.322,26.6752,GPS,51388
Eastern Cape,O.R.Tambo,Zwelichumile Clinic,Clinic,MoH,-31.8929,28.6275,GPS,51389
Eastern Cape,Buffalo City,Zwelitsha Zone 5 Clinic,Clinic,MoH,-32.9241,27.4237,GPS,51390
Eastern Cape,Nelson Mandela Bay,Zwide Clinic,Clinic,MoH,-33.868,25.5552,GPS,51391
Free State,Mangaung,Aandrus Clinic,Clinic,MoH,-29.1255,26.1952,GPS,51392
Free State,Lejweleputswa,Albert Luthuli Memorial Clinic,Clinic,MoH,-27.8362,26.3668,GPS,51393
Free State,Lejweleputswa,Allanridge Clinic,Clinic,MoH,-27.7533,26.6448,GPS,51394
Free State,Lejweleputswa,AM Kruger Clinic,Clinic,MoH,-27.873,26.6853,GPS,51395
Free State,Unassigned — Free State,Amelia Clinic,Clinic,MoH,,,,51396
North West,Bojanala,Ango Maseola Marikana Clinic,Clinic,MoH,-25.6754,27.2349,GPS,51397
Free State,Mangaung,Bainsvlei Clinic,Clinic,MoH,-29.0645,26.1299,GPS,51398
Free State,Thabo Mofutsanyane,Bakenpark Clinic,Clinic,MoH,-28.2185,28.3342,GPS,51399
Free State,Mangaung,Batho Clinic,Clinic,MoH,-29.1389,26.2273,GPS,51400
Free State,Mangaung,Bayswater Clinic,Clinic,MoH,-29.0847,26.2441,GPS,51401
Free State,Thabo Mofutsanyane,Bethlehem Clinic,Clinic,MoH,-28.2327,28.3079,GPS,51402
Free State,Thabo Mofutsanyane,Bethlehem Youth Clinic,Clinic,MoH,-28.233,28.308,GPS,51403
Free State,Mangaung,Bloemspruit Clinic,Clinic,MoH,-29.1373,26.2714,GPS,51404
Free State,Thabo Mofutsanyane,Blue Gum Bush Clinic,Clinic,MoH,-28.4825,28.8491,GPS,51405
Free State,Thabo Mofutsanyane,Bohlokong Clinic,Clinic,MoH,-28.2242,28.3161,GPS,51406
Free State,Thabo Mofutsanyane,Boiketlo Clinic,Clinic,MoH,-28.5496,28.8261,GPS,51407
Free State,Lejweleputswa,Boithusong Clinic,Clinic,MoH,-27.8552,26.7605,GPS,51408
Free State,Fezile Dabi,Boitumelo Hospital,Regional Hospital,MoH,-27.644,27.2132,GPS,51409
Free State,Thabo Mofutsanyane,Boitumelo Senekal Clinic,Clinic,MoH,-28.3436,27.6313,GPS,51410
Free State,Thabo Mofutsanyane,Bolata Clinic,Clinic,MoH,-28.5638,28.7958,GPS,51411
Free State,Lejweleputswa,Bongani Hospital,Regional Hospital,MoH,-27.9531,26.7862,GPS,51412
Free State,Lejweleputswa,Bophelong Allanridge Clinic,Clinic,MoH,-27.7769,26.6569,GPS,51413
Free State,Mangaung,Bophelong Botshabelo Clinic,Clinic,MoH,-29.2778,26.7331,GPS,51414
Free State,Fezile Dabi,Bophelong Kroonstad Clinic,Clinic,MoH,-27.6348,27.1892,GPS,51415
Free State,Lejweleputswa,Bophelong Odendaalsrus Clinic,Clinic,MoH,-27.8591,26.7765,GPS,51416
Free State,Xhariep,Bophelong Petrusburg CHC,Community Health Centre,MoH,-29.119,25.4182,GPS,51417
Free State,Thabo Mofutsanyane,Bophelong Vrede Clinic,Clinic,MoH,-27.4183,29.1736,GPS,51418
Free State,Lejweleputswa,Bophelong Welkom Clinic,Clinic,MoH,-27.969,26.8353,GPS,51419
Free State,Thabo Mofutsanyane,Borwa Clinic,Clinic,MoH,-29.1962,27.03,GPS,51420
Free State,Lejweleputswa,Boshof Clinic,Clinic,MoH,-28.5504,25.2516,GPS,51421
Free State,Lejweleputswa,Bothaville Clinic,Clinic,MoH,-27.3925,26.6194,GPS,51422
Free State,Mangaung,Botshabelo Hospital,District Hospital,MoH,-29.2325,26.7157,GPS,51423
Free State,Mangaung,Botshabelo Industrial Clinic,Clinic,MoH,-29.2041,26.7041,GPS,51424
Free State,Fezile Dabi,Brentpark Clinic,Clinic,MoH,-27.6685,27.1937,GPS,51425
Free State,Lejweleputswa,Bronville Clinic,Clinic,MoH,-27.9965,26.8132,GPS,51426
Free State,Mangaung,Central Park Clinic,Clinic,MoH,-29.1207,26.223,GPS,51427
Free State,Thabo Mofutsanyane,Clocolan Clinic,Clinic,MoH,-28.91,27.5742,GPS,51428
Free State,Lejweleputswa,DA Maleho Clinic,Clinic,MoH,-28.2914,26.1539,GPS,51429
Free State,Mangaung,Daniel Ngatane Clinic,Clinic,MoH,-29.2326,26.7276,GPS,51430
Free State,Lejweleputswa,Dealesville Clinic,Clinic,MoH,-28.6717,25.7653,GPS,51431
Free State,Fezile Dabi,Deneysville Clinic,Clinic,MoH,-26.8911,28.0972,GPS,51432
Free State,Mangaung,Dewetsdorp One Stop Clinic,Clinic,MoH,-29.5852,26.6689,GPS,51433
Free State,Xhariep,Diamond Diamant Hospital,District Hospital,MoH,-29.7603,25.4232,GPS,51434
Free State,Thabo Mofutsanyane,Dihlabeng Gateway Clinic,Clinic,MoH,-28.2332,28.3197,GPS,51435
Free State,Thabo Mofutsanyane,Dihlabeng Hospital,Regional Hospital,MoH,-28.2331,28.3197,GPS,51436
Free State,Mangaung,Dinaane Clinic,Clinic,MoH,-29.2275,26.8313,GPS,51437
Free State,Thabo Mofutsanyane,Dinkweng Clinic,Clinic,MoH,-28.6282,28.8966,GPS,51438
Free State,Mangaung,Dr JS Moroka Hospital,District Hospital,MoH,-29.2045,26.8347,GPS,51439
Free State,Mangaung,Dr Pedro Memorial Clinic,Clinic,MoH,-29.2079,26.6818,GPS,51440
Free State,Lejweleputswa,Duke Street Clinic,Clinic,MoH,-28.6973,26.4638,GPS,51441
Free State,Thabo Mofutsanyane,Elizabeth Ross Hospital,District Hospital,MoH,-28.589,28.8176,GPS,51442
Free State,Mangaung,Elrich Park Clinic,Clinic,MoH,-29.1521,26.2128,GPS,51443
Free State,Xhariep,Embekweni Hospital,District Hospital,MoH,-30.2921,27.0754,GPS,51444
Free State,Xhariep,Ethembeni Clinic,Clinic,MoH,-29.3933,24.9918,GPS,51445
Free State,Thabo Mofutsanyane,Eva Mota Clinic,Clinic,MoH,-28.6334,28.8684,GPS,51446
Free State,Thabo Mofutsanyane,Excelsior Clinic,Clinic,MoH,-28.9329,27.0566,GPS,51447
Free State,Thabo Mofutsanyane,Fateng Tse Ntsho Clinic,Clinic,MoH,-28.299,27.9674,GPS,51448
Free State,Mangaung,Fauna Clinic,Clinic,MoH,-29.1655,26.1899,GPS,51449
Free State,Xhariep,Fauresmith Clinic,Clinic,MoH,-29.7446,25.3094,GPS,51450
Free State,Fezile Dabi,Fezi Ngumbentombi Hospital,District Hospital,MoH,-26.8014,27.8276,GPS,51451
Free State,Mangaung,Fichardtpark Clinic,Clinic,MoH,-29.1438,26.1818,GPS,51452
Free State,Xhariep,Flora Clinic,Clinic,MoH,-30.593,25.4949,GPS,51453
Free State,Fezile Dabi,Frankfort Clinic,Clinic,MoH,-27.2777,28.4925,GPS,51454
Free State,Mangaung,Freedom Square Clinic,Clinic,MoH,-29.1738,26.2537,GPS,51455
Free State,Mangaung,Gabriel Dichabe Clinic,Clinic,MoH,-29.1147,26.2154,GPS,51456
Free State,Mangaung,Gaongalelwe Clinic,Clinic,MoH,-29.1683,26.801,GPS,51457
Free State,Lejweleputswa,Geneva Clinic,Clinic,MoH,-27.8552,26.7554,GPS,51458
Free State,Lejweleputswa,Hani Park Clinic,Clinic,MoH,-27.9871,26.8236,GPS,51459
Free State,Thabo Mofutsanyane,Harrismith Clinic,Clinic,MoH,-28.2726,29.1267,GPS,51460
Free State,Mangaung,Harry Gwala Botshabelo Clinic,Clinic,MoH,-29.2876,26.7111,GPS,51461
Free State,Fezile Dabi,Harry Gwala Sasolburg Clinic,Clinic,MoH,-26.85,27.879,GPS,51462
Free State,Mangaung,Heidedal CHC,Community Health Centre,MoH,-29.1416,26.2464,GPS,51463
Free State,Mangaung,Heidedal Clinic,Clinic,MoH,-29.142,26.246,GPS,51464
Free State,Fezile Dabi,Heilbron Clinic,Clinic,MoH,-27.2903,27.9681,GPS,51465
Free State,Fezile Dabi,Heilbron PHC Inside Clinic,Clinic,MoH,-27.29,27.968,GPS,51466
Free State,Lejweleputswa,Helpmekaar Satellite Clinic,Satellite Clinic,MoH,-27.7514,26.1151,GPS,51467
Free State,Lejweleputswa,Hennenman Clinic,Clinic,MoH,-27.9724,27.02,GPS,51468
Free State,Thabo Mofutsanyane,Highway Junction Clinic,Clinic,MoH,-28.2885,29.1316,GPS,51469
Free State,Fezile Dabi,Hill Street Clinic,Clinic,MoH,-27.6631,27.2403,GPS,51470
Free State,Mangaung,Hilton Clinic,Clinic,MoH,-29.1073,26.2383,GPS,51471
Free State,Thabo Mofutsanyane,Hlohlolwane Clinic,Clinic,MoH,-28.9119,27.5522,GPS,51472
Free State,Thabo Mofutsanyane,Hobhouse Clinic,Clinic,MoH,-29.5214,27.1475,GPS,51473
Free State,Lejweleputswa,Hoopstad Clinic,Clinic,MoH,-27.8323,25.9147,GPS,51474
Free State,Lejweleputswa,Hope CHC,Community Health Centre,MoH,-28.0817,27.144,GPS,51475
Free State,Mangaung,Hostel nr 1 Clinic,Clinic,MoH,-29.1341,26.2383,GPS,51476
Free State,Xhariep,Hydropark Clinic,Clinic,MoH,-30.593,25.494,GPS,51477
Free State,Thabo Mofutsanyane,Ikaheng Clinic,Clinic,MoH,-29.1681,27.4599,GPS,51478
Free State,Mangaung,Ikgomotseng Clinic,Clinic,MoH,-28.7361,26.1049,GPS,51479
Free State,Thabo Mofutsanyane,Intabazwe Clinic,Clinic,MoH,-28.2529,29.0967,GPS,51480
Free State,Thabo Mofutsanyane,Itemoheng Hospital,District Hospital,MoH,-28.3274,27.6055,GPS,51481
Free State,Mangaung,Itumeleng Botshabelo Clinic,Clinic,MoH,-29.2854,26.7197,GPS,51482
Free State,Thabo Mofutsanyane,Itumeleng Clarens Clinic,Clinic,MoH,-28.5225,28.4213,GPS,51483
Free State,Xhariep,Itumeleng Jagersfontein Clinic,Clinic,MoH,-29.7669,25.4349,GPS,51484
Free State,Xhariep,Jacobsdal Clinic,Clinic,MoH,-29.1299,24.7716,GPS,51485
Free State,Mangaung,Jazzman Mokhothu Clinic,Clinic,MoH,-29.2572,26.7139,GPS,51486
Free State,Thabo Mofutsanyane,John Daniel Newberry Hospital,District Hospital,MoH,-28.91,27.5742,GPS,51487
Free State,Mangaung,Kagisanong Clinic,Clinic,MoH,-29.1962,26.245,GPS,51488
Free State,Lejweleputswa,Kamohelo Clinic,Clinic,MoH,-28.5311,27.0017,GPS,51489
Free State,Fezile Dabi,Kananelo CHC,Community Health Centre,MoH,-27.0047,27.3681,GPS,51490
Free State,Lejweleputswa,Katleho Hospital,District Hospital,MoH,-28.1105,26.858,GPS,51491
Free State,Mangaung,Kgalala Clinic,Clinic,MoH,-28.9888,26.8043,GPS,51492
Free State,Fezile Dabi,Kganya CHC,Community Health Centre,MoH,-27.2342,27.5875,GPS,51493
Free State,Fezile Dabi,Kgotso Clinic,Clinic,MoH,-27.5553,27.6637,GPS,51494
Free State,Lejweleputswa,Kgotsong Bothaville Clinic,Clinic,MoH,-27.3902,26.6442,GPS,51495
Free State,Unassigned — Free State,Khosatsana Masetjhaba Clinic,Clinic,MoH,,,,51496
Free State,Lejweleputswa,Khotalong Clinic,Clinic,MoH,-28.1318,26.9029,GPS,51497
Free State,Mangaung,Klipfontein Clinic,Clinic,MoH,-29.5228,26.983,GPS,51498
Free State,Lejweleputswa,K-Maile Clinic,Clinic,MoH,-27.3839,26.6574,GPS,51499
Free State,Thabo Mofutsanyane,Kokelong Clinic,Clinic,MoH,-28.678,27.4143,GPS,51500
Free State,Lejweleputswa,Kopano CHC,Community Health Centre,MoH,-27.983,26.728,GPS,51501
Free State,Thabo Mofutsanyane,Kopanong Clinic,Clinic,MoH,-28.3312,28.6981,GPS,51502
Free State,Thabo Mofutsanyane,Ladybrand Clinic,Clinic,MoH,-29.191,27.459,GPS,51503
Free State,Mangaung,Langenhovenpark Clinic,Clinic,MoH,-29.0978,26.1559,GPS,51504
Free State,Mangaung,Lebohang Clinic,Clinic,MoH,-29.7205,27.0272,GPS,51505
Free State,Xhariep,Lephoi Clinic,Clinic,MoH,-30.4978,25.9798,GPS,51506
Free State,Lejweleputswa,Leratong Clinic,Clinic,MoH,-27.7808,26.6568,GPS,51507
Free State,Thabo Mofutsanyane,Leratswana Clinic,Clinic,MoH,-28.0277,27.844,GPS,51508
Free State,Fezile Dabi,Lesedi CHC,Community Health Centre,MoH,-27.6409,27.1923,GPS,51509
Free State,Thabo Mofutsanyane,Lesedi Clinic,Clinic,MoH,-28.2479,29.1054,GPS,51510
Free State,Thabo Mofutsanyane,Leseding Clinic,Clinic,MoH,-27.8815,27.9074,GPS,51511
Free State,Thabo Mofutsanyane,Lindley Clinic,Clinic,MoH,-27.8813,27.9159,GPS,51512
Free State,Mangaung,Lourierpark Clinic,Clinic,MoH,-29.1778,26.1744,GPS,51513
Free State,Xhariep,Luckhoff Clinic,Clinic,MoH,-29.7499,24.7863,GPS,51514
Free State,Lejweleputswa,Lusaka Clinic,Clinic,MoH,-28.4166,26.698,GPS,51515
Free State,Mangaung,Mafane Clinic,Clinic,MoH,-29.1989,26.8134,GPS,51516
Free State,Fezile Dabi,Mafube Hospital,District Hospital,MoH,-27.2788,28.5002,GPS,51517
Free State,Thabo Mofutsanyane,Ma-haig Clinic,Clinic,MoH,-28.5193,28.8014,GPS,51518
Free State,Thabo Mofutsanyane,Makeneng Clinic,Clinic,MoH,-28.6144,28.8216,GPS,51519
Free State,Thabo Mofutsanyane,Makhalaneng Clinic,Clinic,MoH,-28.5508,28.7914,GPS,51520
Free State,Thabo Mofutsanyane,Makoane Clinic,Clinic,MoH,-28.5346,28.8882,GPS,51521
Free State,Thabo Mofutsanyane,Malesaona Clinic,Clinic,MoH,-28.5585,28.721,GPS,51522
Free State,Mangaung,Maletsatsi Mabaso Clinic,Clinic,MoH,-29.2547,26.732,GPS,51523
Free State,Thabo Mofutsanyane,Mamello CHC,Community Health Centre,MoH,-28.6668,27.4265,GPS,51524
Free State,Xhariep,Mamello Clinic,Clinic,MoH,-30.0341,25.7807,GPS,51525
Free State,Thabo Mofutsanyane,Manyatseng Clinic,Clinic,MoH,-29.1724,27.4656,GPS,51526
Free State,Thabo Mofutsanyane,Marakong Clinic,Clinic,MoH,-28.5652,28.8471,GPS,51527
Free State,Lejweleputswa,Marantha Clinic,Clinic,MoH,-28.6907,26.4628,GPS,51528
Free State,Thabo Mofutsanyane,Masebabatso Clinic,Clinic,MoH,-28.9043,27.8833,GPS,51529
Free State,Lejweleputswa,Masilo Clinic,Clinic,MoH,-28.4098,26.7071,GPS,51530
Free State,Lejweleputswa,Matjhabeng Clinic,Clinic,MoH,-27.9673,26.7984,GPS,51531
Free State,Xhariep,Matlakeng Clinic,Clinic,MoH,-30.296,27.0944,GPS,51532
Free State,Xhariep,Matlakeng Hospital,District Hospital,MoH,-30.2968,27.1004,GPS,51533
Free State,Thabo Mofutsanyane,Matsieng Clinic,Clinic,MoH,-28.6015,28.801,GPS,51534
Free State,Thabo Mofutsanyane,Matwabeng Clinic,Clinic,MoH,-28.3443,27.6287,GPS,51535
Free State,Thabo Mofutsanyane,Mauersnek Clinic,Clinic,MoH,-29.1903,27.4395,GPS,51536
Free State,Mangaung,MCDC Clinic,Clinic,MoH,-29.1753,26.2199,GPS,51537
Free State,Lejweleputswa,Meloding Clinic,Clinic,MoH,-28.1299,26.8977,GPS,51538
Free State,Thabo Mofutsanyane,Memel Clinic,Clinic,MoH,-27.6778,29.5642,GPS,51539
Free State,Thabo Mofutsanyane,Meqheleng Clinic,Clinic,MoH,-28.8898,27.8771,GPS,51540
Free State,Fezile Dabi,Metsimaholo Clinic,Clinic,MoH,-26.9791,28.2111,GPS,51541
Free State,Mangaung,Mmabana Clinic,Clinic,MoH,-29.1507,26.2417,GPS,51542
Free State,Lejweleputswa,Mmamahabane Clinic,Clinic,MoH,-28.0917,27.1477,GPS,51543
Free State,Thabo Mofutsanyane,Mofumahadi Manapo Mopeli Hospital,Regional Hospital,MoH,-28.537,28.8051,GPS,51544
Free State,Lejweleputswa,Mohau Hospital,District Hospital,MoH,-27.8323,25.9154,GPS,51545
Free State,Mangaung,Mokwena Clinic,Clinic,MoH,-29.1939,26.8407,GPS,51546
Free State,Mangaung,Molefi Tau Clinic,Clinic,MoH,-29.2109,26.7193,GPS,51547
Free State,Thabo Mofutsanyane,Monontsha Clinic,Clinic,MoH,-28.5656,28.7449,GPS,51548
Free State,Mangaung,Monument Clinic,Clinic,MoH,-29.1327,26.2188,GPS,51549
Free State,Thabo Mofutsanyane,Mphatlalatsane Clinic,Clinic,MoH,-28.5093,28.8368,GPS,51550
Free State,Thabo Mofutsanyane,Mphohadi Clinic,Clinic,MoH,-28.1977,28.3258,GPS,51551
Free State,Mangaung,MUCPP CHC,Community Health Centre,MoH,-29.1792,26.2429,GPS,51552
Free State,Lejweleputswa,Nala Hospital,District Hospital,MoH,-27.3946,26.6178,GPS,51553
Free State,Thabo Mofutsanyane,Namahali Clinic,Clinic,MoH,-28.5836,28.8296,GPS,51554
Free State,Mangaung,National District Hospital,District Hospital,MoH,-29.127,26.2064,GPS,51555
Free State,Mangaung,National District Hospital Gateway Clinic,Clinic,MoH,-29.1281,26.207,GPS,51556
Free State,Xhariep,Nelson Mandela Clinic,Clinic,MoH,-29.731,25.9416,GPS,51557
Free State,Thabo Mofutsanyane,Nketoana Hospital,District Hospital,MoH,-27.8028,28.4189,GPS,51558
Free State,Mangaung,Noorderbloem Clinic,Clinic,MoH,-29.15,26.25,GPS,51559
Free State,Thabo Mofutsanyane,Nothnagel Clinic,Clinic,MoH,-28.6765,27.4202,GPS,51560
Free State,Thabo Mofutsanyane,Nthabiseng Clinic,Clinic,MoH,-28.5908,28.7822,GPS,51561
Free State,Mangaung,Opkoms Clinic,Clinic,MoH,-29.1445,26.2523,GPS,51562
Free State,Xhariep,Oppermansgronde Clinic,Clinic,MoH,-29.4135,24.7448,GPS,51563
Free State,Lejweleputswa,OR Tambo Clinic,Clinic,MoH,-28.1496,26.8873,GPS,51564
Free State,Thabo Mofutsanyane,OR Tambo Senekal Clinic,Clinic,MoH,-28.3257,27.6135,GPS,51565
Free State,Thabo Mofutsanyane,Paballong Clinic,Clinic,MoH,-28.5552,28.777,GPS,51566
Free State,Fezile Dabi,Parys Clinic,Clinic,MoH,-26.8993,27.4572,GPS,51567
Free State,Fezile Dabi,Parys Hospital,District Hospital,MoH,-26.8959,27.4721,GPS,51568
Free State,Thabo Mofutsanyane,Paul Roux Clinic,Clinic,MoH,-28.296,27.9556,GPS,51569
Free State,Fezile Dabi,PAX CHC,Community Health Centre,MoH,-27.1989,26.9498,GPS,51570
Free State,Mangaung,Pelonomi Hospital,Provincial Tertiary Hospital,MoH,-29.1413,26.2457,GPS,51571
Free State,Thabo Mofutsanyane,Petsana Clinic,Clinic,MoH,-27.804,28.4465,GPS,51572
Free State,Lejweleputswa,Phahameng Bultfontein Clinic,Clinic,MoH,-28.3007,26.1485,GPS,51573
Free State,Fezile Dabi,Phahameng Frankfort Clinic,Clinic,MoH,-27.2549,28.5131,GPS,51574
Free State,Lejweleputswa,Phedisanang Clinic,Clinic,MoH,-27.8565,26.7705,GPS,51575
Free State,Fezile Dabi,Phedisong Clinic,Clinic,MoH,-27.0212,28.6276,GPS,51576
Free State,Fezile Dabi,Phekolong Cornelia Clinic,Clinic,MoH,-27.2285,28.8507,GPS,51577
Free State,Thabo Mofutsanyane,Phekolong Hospital,District Hospital,MoH,-28.2176,28.3265,GPS,51578
Free State,Xhariep,Phekolong Reddersburg Clinic,Clinic,MoH,-29.6528,26.1665,GPS,51579
Free State,Mangaung,Phetogo Clinic,Clinic,MoH,-29.3677,26.8368,GPS,51580
Free State,Fezile Dabi,Philani Clinic,Clinic,MoH,-27.2679,28.5048,GPS,51581
Free State,Xhariep,Philippolis Clinic,Clinic,MoH,-30.2663,25.2751,GPS,51582
Free State,Thabo Mofutsanyane,Phomolong Ficksburg Clinic,Clinic,MoH,-28.8943,27.8818,GPS,51583
Free State,Lejweleputswa,Phomolong Hennenman Clinic,Clinic,MoH,-28.014,27.0812,GPS,51584
Free State,Thabo Mofutsanyane,Phumelela Hospital,District Hospital,MoH,-27.4335,29.1558,GPS,51585
Free State,Thabo Mofutsanyane,Phuthaditjhaba Clinic,Clinic,MoH,-28.5201,28.8206,GPS,51586
Free State,Thabo Mofutsanyane,Phuthuloha Hospital,District Hospital,MoH,-28.8813,27.872,GPS,51587
Free State,Mangaung,Poly Clinic,Clinic,MoH,-29.1338,26.2391,GPS,51588
Free State,Mangaung,Potlako Motlohi Clinic,Clinic,MoH,-29.2716,26.7232,GPS,51589
Free State,Mangaung,Pule Sefatsa Clinic,Clinic,MoH,-29.2614,26.6912,GPS,51590
Free State,Fezile Dabi,Qalabotjha Clinic,Clinic,MoH,-27.0204,28.625,GPS,51591
Free State,Thabo Mofutsanyane,Qholaqhwe Clinic,Clinic,MoH,-28.5228,28.8551,GPS,51592
Free State,Fezile Dabi,Rainbow Clinic,Clinic,MoH,-27.5534,28.5132,GPS,51593
Free State,Fezile Dabi,Rammulotsi Clinic,Clinic,MoH,-27.1949,26.9537,GPS,51594
Free State,Lejweleputswa,Rearabetsoe Virginia Clinic,Clinic,MoH,-28.0624,26.8642,GPS,51595
Free State,Thabo Mofutsanyane,Rearabetswe Clinic,Clinic,MoH,-27.6541,28.1285,GPS,51596
Free State,Fezile Dabi,Refengkgotso Clinic,Clinic,MoH,-26.8934,28.0716,GPS,51597
Free State,Thabo Mofutsanyane,Reitumetse Clinic,Clinic,MoH,-28.6206,28.1955,GPS,51598
Free State,Thabo Mofutsanyane,Reitz Clinic,Clinic,MoH,-27.803,28.4197,GPS,51599
Free State,Fezile Dabi,Relebohile Heilbron Clinic,Clinic,MoH,-27.2717,27.9754,GPS,51600
Free State,Thabo Mofutsanyane,Relebohile Rosendal Clinic,Clinic,MoH,-28.5084,27.9227,GPS,51601
Free State,Fezile Dabi,Relebohile Vredefort Clinic,Clinic,MoH,-27.0021,27.3761,GPS,51602
Free State,Lejweleputswa,Rheederspark Clinic,Clinic,MoH,-27.9545,26.72,GPS,51603
Free State,Lejweleputswa,Riebeeckstad Clinic,Clinic,MoH,-27.9335,26.8119,GPS,51604
Free State,Thabo Mofutsanyane,Riverside Clinic,Clinic,MoH,-28.5437,28.813,GPS,51605
Free State,Fezile Dabi,Sandersville Clinic,Clinic,MoH,-27.2747,27.965,GPS,51606
Free State,Mangaung,SANDF Clinic,Clinic,MoH,-29.091,26.1895,GPS,51607
Free State,Fezile Dabi,Sasolburg Clinic,Clinic,MoH,-26.8179,27.8277,GPS,51608
Free State,Fezile Dabi,Schonkenville Clinic,Clinic,MoH,-26.9332,27.4628,GPS,51609
Free State,Mangaung,Seadimo Clinic,Clinic,MoH,-29.1004,26.9845,GPS,51610
Free State,Mangaung,Sediba Clinic,Clinic,MoH,-29.0289,26.943,GPS,51611
Free State,Fezile Dabi,Sedibeng sa Bophelo Clinic,Clinic,MoH,-27.9455,27.5541,GPS,51612
Free State,Fezile Dabi,Seeisoville Clinic,Clinic,MoH,-27.6541,27.2102,GPS,51613
Free State,Xhariep,Sehularo Tau Clinic,Clinic,MoH,-30.2591,25.7073,GPS,51614
Free State,Thabo Mofutsanyane,Sekamotho Mota Clinic,Clinic,MoH,-28.6487,28.8523,GPS,51615
Free State,Thabo Mofutsanyane,Senekal Clinic,Clinic,MoH,-28.3279,27.6057,GPS,51616
Free State,Thabo Mofutsanyane,Senekal Farms Clinic,Clinic,MoH,-28.325,27.61,GPS,51617
Free State,Thabo Mofutsanyane,Senorita Ntlabathi Hospital,District Hospital,MoH,-29.2029,27.4481,GPS,51618
Free State,Fezile Dabi,Sizabantu Clinic,Clinic,MoH,-27.2661,27.9776,GPS,51619
Free State,Thabo Mofutsanyane,Soetwater Clinic,Clinic,MoH,-28.8748,27.8759,GPS,51620
Free State,Xhariep,Stoffel Coetzee Hospital,District Hospital,MoH,-30.2177,26.5244,GPS,51621
Free State,Thabo Mofutsanyane,Tebang Clinic,Clinic,MoH,-28.526,28.8724,GPS,51622
Free State,Thabo Mofutsanyane,Thaba Bosiu Clinic,Clinic,MoH,-28.5982,28.8837,GPS,51623
Free State,Mangaung,Thaba Nchu Clinic,Clinic,MoH,-29.218,26.8478,GPS,51624
Free State,Thabo Mofutsanyane,Thaba Phatswa Clinic,Clinic,MoH,-29.3128,27.1249,GPS,51625
Free State,Thabo Mofutsanyane,Thabang Clinic,Clinic,MoH,-28.6094,28.8306,GPS,51626
Free State,Lejweleputswa,Thabong Clinic,Clinic,MoH,-27.964,26.7916,GPS,51627
Free State,Thabo Mofutsanyane,Thambo Container Clinic,Clinic,MoH,-28.4,27.5,GPS,51628
Free State,Thabo Mofutsanyane,Thebe Hospital,District Hospital,MoH,-28.2722,29.1381,GPS,51629
Free State,Xhariep,Thembalethu Clinic,Clinic,MoH,-30.214,26.5356,GPS,51630
Free State,Thabo Mofutsanyane,Thusa Bophelo Clinic,Clinic,MoH,-27.8363,28.978,GPS,51631
Free State,Fezile Dabi,Thusanang Sasolburg Clinic,Clinic,MoH,-26.8449,27.8645,GPS,51632
Free State,Lejweleputswa,Thusanong Hospital,District Hospital,MoH,-27.8773,26.6592,GPS,51633
Free State,Fezile Dabi,Thusanong Kroonstad Clinic,Clinic,MoH,-27.6487,27.1902,GPS,51634
Free State,Fezile Dabi,Thusanong Parys Clinic,Clinic,MoH,-26.9201,27.4848,GPS,51635
Free State,Mangaung,Thusong Clinic,Clinic,MoH,-29.1847,26.2346,GPS,51636
Free State,Mangaung,Tiger River Clinic,Clinic,MoH,-29.1204,26.7894,GPS,51637
Free State,Thabo Mofutsanyane,Tina Moloi Clinic,Clinic,MoH,-28.6097,28.8563,GPS,51638
Free State,Fezile Dabi,Tokollo Hospital,District Hospital,MoH,-27.2891,27.9617,GPS,51639
Free State,Mangaung,TS Mahloko Clinic,Clinic,MoH,-29.243,26.7166,GPS,51640
Free State,Fezile Dabi,Tsatsi SPS Clinic,Clinic,MoH,-26.8444,27.8557,GPS,51641
Free State,Thabo Mofutsanyane,Tseki Clinic,Clinic,MoH,-28.5858,28.7723,GPS,51642
Gauteng,Ekurhuleni,Tshepo Themba Clinic,Clinic,MoH,-26.3496,28.2023,GPS,51643
Free State,Fezile Dabi,Tshepong Kroonstad Clinic,Clinic,MoH,-27.6388,27.174,GPS,51644
Free State,Lejweleputswa,Tshepong Verkeerdevlei Clinic,Clinic,MoH,-28.8401,26.7621,GPS,51645
Free State,Lejweleputswa,Tshepong Welkom Clinic,Clinic,MoH,-27.9577,26.8361,GPS,51646
Free State,Thabo Mofutsanyane,Tshiame A Clinic,Clinic,MoH,-28.32,28.99,GPS,51647
Free State,Thabo Mofutsanyane,Tshiame B Clinic,Clinic,MoH,-28.3243,28.9947,GPS,51648
Free State,Thabo Mofutsanyane,Tshirela Clinic,Clinic,MoH,-28.6228,28.8046,GPS,51649
Free State,Lejweleputswa,Tshwaraganang Dealesville Clinic,Clinic,MoH,-28.6579,25.7714,GPS,51650
Free State,Lejweleputswa,Tshwaraganang Hertzogville Clinic,Clinic,MoH,-28.123,25.4999,GPS,51651
Free State,Fezile Dabi,Tumahole Clinic,Clinic,MoH,-26.9162,27.4677,GPS,51652
Free State,Mangaung,Tweefontein Clinic,Clinic,MoH,-29.3701,26.9256,GPS,51653
Free State,Thabo Mofutsanyane,Tweespruit Clinic,Clinic,MoH,-29.1875,27.0254,GPS,51654
Free State,Mangaung,Universitas C Hospital,National Central Hospital,MoH,-29.118,26.1843,GPS,51655
Free State,Lejweleputswa,Vaal Rock Clinic,Clinic,MoH,-28.6815,26.4614,GPS,51656
Free State,Fezile Dabi,Vaalpark Clinic,Clinic,MoH,-26.773,27.839,GPS,51657
Free State,Mangaung,Vanstadensrus Clinic,Clinic,MoH,-29.9852,27.0136,GPS,51658
Free State,Fezile Dabi,Villiers Clinic,Clinic,MoH,-27.029,28.5979,GPS,51659
Free State,Lejweleputswa,Virginia Clinic,Clinic,MoH,-28.1076,26.8641,GPS,51660
Free State,Fezile Dabi,Vivian Mangwane Clinic,Clinic,MoH,-26.9115,27.4907,GPS,51661
Free State,Thabo Mofutsanyane,Vrede Clinic,Clinic,MoH,-27.4343,29.1553,GPS,51662
Free State,Lejweleputswa,Welkom Clinic,Clinic,MoH,-27.9854,26.7414,GPS,51663
Free State,Mangaung,Westdene Clinic,Clinic,MoH,-29.1027,26.2076,GPS,51664
Free State,Mangaung,Wilgehof Clinic,Clinic,MoH,-29.1276,26.1912,GPS,51665
Free State,Lejweleputswa,Winburg Clinic,Clinic,MoH,-28.5186,27.0131,GPS,51666
Free State,Lejweleputswa,Winburg Hospital,District Hospital,MoH,-28.5098,27.008,GPS,51667
Free State,Mangaung,Winnie Mandela Botshabelo Clinic,Clinic,MoH,-29.2182,26.7033,GPS,51668
Free State,Xhariep,Winnie Mandela Rouxville Clinic,Clinic,MoH,-30.4077,26.8309,GPS,51669
Free State,Thabo Mofutsanyane,Zamani Clinic,Clinic,MoH,-27.6687,29.5613,GPS,51670
Free State,Fezile Dabi,Zamdela CHC,Community Health Centre,MoH,-26.8421,27.8467,GPS,51671
Gauteng,City of Johannesburg,17 Esselen Street Clinic,Clinic,Local authority,-26.191,28.045,GPS,51672
Gauteng,City of Johannesburg,4th Avenue Clinic,Clinic,MoH,-26.1052,28.0908,GPS,51673
Gauteng,City of Johannesburg,80 Albert Street Clinic,Clinic,MoH,-26.2077,28.0496,GPS,51674
Gauteng,City of Tshwane,Adelaide Tambo Clinic,Clinic,MoH,-25.5819,28.2333,GPS,51675
Gauteng,City of Tshwane,Akasia Refugee Shelter Clinic,Clinic,MoH,-25.6381,28.1233,GPS,51676
Gauteng,Sedibeng,Albertina Sisulu Clinic,Clinic,Local authority,-26.5769,27.8486,GPS,51677
Gauteng,Ekurhuleni,Alberton North Clinic,Clinic,Local authority,-26.2596,28.1286,GPS,51678
Gauteng,City of Johannesburg,Alexandra 8th Avenue Clinic,Clinic,Local authority,-26.1095,28.0959,GPS,51679
Gauteng,City of Johannesburg,Alexandra CHC,Community Health Centre,Local authority,-26.1164,28.0884,GPS,51680
Gauteng,City of Johannesburg,Alexandra East Bank Clinic,Clinic,Local authority,-26.1067,28.11,GPS,51681
Gauteng,Ekurhuleni,Alra Park Clinic,Clinic,Local authority,-26.4327,28.5083,GPS,51682
Gauteng,Ekurhuleni,Alra Park Ext 3 Clinic,Clinic,Local authority,-26.446,28.5127,GPS,51683
Gauteng,Ekurhuleni,Andries Raditsela Clinic,Clinic,MoH,-26.3343,28.3887,GPS,51684
Gauteng,City of Tshwane,Atteridgeville Clinic,Clinic,Local authority,-25.7686,28.0784,GPS,51685
Gauteng,West Rand,Azaadville Clinic,Clinic,Local authority,-26.1709,27.7583,GPS,51686
Gauteng,West Rand,Badirile Clinic,Clinic,Local authority,-26.1302,27.5928,GPS,51687
Gauteng,Ekurhuleni,Bakerton Health Post,Health Post,Local authority,-26.2263,28.4691,GPS,51688
Gauteng,Ekurhuleni,Bapsfontein Clinic,Clinic,Local authority,-26.0028,28.4135,GPS,51689
Gauteng,Ekurhuleni,Barcelona Clinic,Clinic,Local authority,-26.1091,28.4522,GPS,51690
Gauteng,City of Johannesburg,Barney Molokoane Clinic,Clinic,MoH,-26.4924,27.8791,GPS,51691
Gauteng,Ekurhuleni,Bedfordview Clinic,Clinic,Local authority,-26.1793,28.1345,GPS,51692
Gauteng,West Rand,Bekkersdal East Clinic,Clinic,Local authority,-26.2834,27.704,GPS,51693
Gauteng,West Rand,Bekkersdal West CHC,Community Health Centre,Local authority,-26.2861,27.6974,GPS,51694
Gauteng,City of Johannesburg,Bellavista Clinic,Clinic,Local authority,-26.2557,28.0293,GPS,51695
Gauteng,City of Johannesburg,Berario Clinic,Clinic,Local authority,-26.1356,27.9528,GPS,51696
Gauteng,City of Johannesburg,Berea Clinic,Clinic,Local authority,-26.1879,28.055,GPS,51697
